,city,lat,lng,pop,country,time,dist,risk
0,Qal eh-ye Now,34.98300013,63.13329964,2997.0,Afghanistan,130.0,102.39031704503823,4.169192476657067
1,Chaghcharan,34.5167011,65.25000063,15000.0,Afghanistan,730.0,875.5940273199918,0.8420204946462038
2,Lashkar Gah,31.58299802,64.35999955,201546.0,Afghanistan,77.0,694.0080079065493,1.6895443290478551
3,Zaranj,31.11200108,61.88699752,49851.0,Afghanistan,226.0,161.68149638368016,3.63329410543359
4,Tarin Kowt,32.63329815,65.86669865,10000.0,Afghanistan,7850.0,141.59776930516026,3.3284932997318273
5,Zareh Sharan,32.85000016,68.41670453,13737.0,Afghanistan,87.0,197.62167808192783,3.379623904229868
6,Asadabad,34.86600004,71.15000459,48400.0,Afghanistan,136.0,589.198693003658,1.751955357260162
7,Taloqan,36.72999904,69.54000364,64256.0,Afghanistan,6570.0,224.4494599483261,2.790878046115876
8,Mahmud-E Eraqi,35.01669608,69.33330065,7407.0,Afghanistan,165.0,213.93790473842938,3.1094120871589515
9,Mehtar Lam,34.65000001,70.16670052,17345.0,Afghanistan,3.0,433.33122275228556,2.992184064589906
10,Baraki Barak,33.9667021,68.96670354,22305.0,Afghanistan,3.0,796.1464499967515,2.089645316948271
11,Aybak,36.26100015,68.04000051,24000.0,Afghanistan,7370.0,357.59502404107855,2.0068665280071403
12,Mayda Shahr,34.45000209,68.79999663,35008.0,Afghanistan,8870.0,377.4133469316997,1.9375678458888212
13,Karokh,34.48676963,62.59177608,14388.5,Afghanistan,5.0,324.3001829729749,3.2715581549490684
14,Sheberghan,36.65798077,65.73830237,74441.0,Afghanistan,12.0,807.0400183009948,1.7794050257245757
15,Pol-e Khomri,35.95107302,68.70111894,41029.0,Afghanistan,9620.0,211.06083506128942,2.8198265684173025
16,Balkh,36.75011985,66.89973018,147426.0,Afghanistan,68.0,659.1104270182235,1.7693993720091863
17,Meymaneh,35.93022158,64.77009273,199795.0,Afghanistan,7370.0,173.71512828831993,3.2409444957643
18,Andkhvoy,36.93165916,65.10149369,50469.0,Afghanistan,3.0,194.24681204348437,4.282801909774853
19,Qalat,32.11226341,66.8867594,12191.0,Afghanistan,5270.0,535.3349265986462,1.3723754131874082
20,Ghazni,33.56331179,68.41782873,129892.5,Afghanistan,1183.0,303.52219598697707,2.547090565853912
21,Feyzabad,37.12976076,70.57924719,52490.0,Afghanistan,69.0,691.679262391401,1.6247110531301046
22,Kondoz,36.72795066,68.87252966,210855.5,Afghanistan,146.0,140.15674208930412,4.0059446717785985
23,Jalalabad,34.44152692,70.43610347,401697.0,Afghanistan,718.0,69.30642718214683,4.885028394818218
24,Charikar,35.01826174,69.16791215,53676.0,Afghanistan,27.0,430.6467840435292,2.5235124463529894
25,Gardiz,33.60005373,69.21462764,82680.5,Afghanistan,113.0,351.58646642317314,2.5991875168730174
26,Bamian,34.82106447,67.52103593,61863.0,Afghanistan,2070.0,599.564569231226,1.409476427440096
27,Baghlan,36.13933026,68.69925858,163598.5,Afghanistan,2570.0,58.10782524724255,4.955465912296657
28,Farah,32.39172955,62.09681921,58604.0,Afghanistan,3.0,155.75108461654318,4.625295410941351
29,Herat,34.33000917,62.16999304,439232.5,Afghanistan,12.0,212.8467608482242,3.907555603681122
30,Mazar-e Sharif,36.69999371,67.10002803,365432.5,Afghanistan,10.0,966.4609593108703,1.6524964979297738
31,Kandahar,31.61002016,65.69494584,613871.0,Afghanistan,42.0,335.2927566498183,2.9669275890795364
32,Kabul,34.51669029,69.18326005,3160266.0,Afghanistan,1730.0,57.62413514286289,5.174672512094881
33,Mariehamn,60.09699618,19.94900447,10682.0,Aland,44.0,606.561074635835,1.7850302474210862
34,Kruje,41.51899817,19.79700359,21286.0,Albania,82.0,397.19211229462593,2.369713524446806
35,Fier,40.73000402,19.573002600000002,69747.5,Albania,1580.0,324.07215246929775,2.376409786964688
36,Lushnje,40.94000113,19.71600348,41469.0,Albania,12.0,179.8568191145884,4.008654087140743
37,Puke,42.03330302,19.88330448,6495.0,Albania,55.0,302.36358346710233,2.755407707369816
38,Bajram Curri,42.33330007,20.08330257,7967.0,Albania,4320.0,76.16001258333299,4.286917090903803
39,Kukes,42.08300107,20.43399653,17832.0,Albania,820.0,345.42948800255965,2.2515205022702975
40,Sarande,39.87700212,19.99999859,15147.0,Albania,20.0,129.45028138971648,4.306419063230384
41,Erseke,40.33330213,20.68329651,7890.0,Albania,7240.0,578.7113845961518,1.1906567235690477
42,Pogradec,40.89999612,20.66400062,35000.0,Albania,107.0,579.914296363909,1.7901357240960882
43,Korce,40.61667601,20.76666353,58259.0,Albania,3.0,506.3265623328725,2.8453993098419113
44,Berat,40.70999705,19.97199958,46866.0,Albania,21.0,197.3234736910565,3.746816831947039
45,Corovode,40.51670403,20.23329663,14046.0,Albania,4970.0,493.1742953648071,1.5132182685802003
46,Gramsh,40.86669601,20.19999652,11556.0,Albania,166.0,322.51205497439116,2.5260903282807554
47,Librazhd,41.20000211,20.3667036,12691.0,Albania,281.0,334.758298957924,2.403633618966301
48,Tepelene,40.2832981,20.03329854,11955.0,Albania,5570.0,328.30638487284216,2.1059181397735895
49,Permet,40.23399605,20.35199756,10686.0,Albania,5.0,658.1822317049911,2.1758610161456877
50,Gjirokaster,40.07899809,20.14900256,23437.0,Albania,10070.0,583.6139985176632,1.2372215417535768
51,Peshkopi,41.6833021,20.43330349,14848.0,Albania,2070.0,380.08356647333414,1.9944390686352296
52,Burrel,41.62599908,20.01600053,15405.0,Albania,29.0,172.9074145553152,3.793367106004515
53,Lezhe,41.78799914,19.65400254,18695.0,Albania,68.0,259.2143749234559,3.0366672308238116
54,Rreshen,41.78330106,19.81670459,10064.0,Albania,68.0,800.6097647053028,1.2800959511497148
55,Vlore,40.47736005,19.49823075,89508.5,Albania,29.0,225.29957159894093,3.5223513529194577
56,Elbasan,41.12150677,20.08382808,132956.5,Albania,1330.0,384.2475200147508,2.1795749516730725
57,Durres,41.3177997,19.44820797,132233.0,Albania,4470.0,470.61853461093756,1.7540027086774033
58,Shkoder,42.06845156,19.51884965,122006.0,Albania,25.0,300.8851207165573,3.1373586336270463
59,Tirana,41.32754071,19.81888301,658318.0,Albania,2570.0,137.67935954990688,3.75655488114931
60,Jijel,36.82199703,5.76600356,148000.0,Algeria,129.0,350.79731606797685,2.6201189112869048
61,Tizi-Ouzou,36.80000111,4.033332556,144000.0,Algeria,68.0,519.7103026479763,2.1280318844134967
62,Bordj Bou Arreridj,36.05900401,4.629996466000001,134500.0,Algeria,38.0,234.52912811169804,3.4340587429950284
63,M'sila,35.7000031,4.545000583999999,125000.0,Algeria,4.0,188.22238569254284,4.3097745095437725
64,Guelma,36.46600213,7.427997486000001,123590.0,Algeria,1150.0,369.185433973809,2.2508455307474375
65,Oum el Bouaghi,35.84999715,7.149996522,100821.0,Algeria,389.0,142.55009903855634,3.798268974948385
66,Timimoun,29.23652163,0.269998737,26568.0,Algeria,115.0,532.3737853250217,1.8880561109108231
67,Sidi bel Abbes,35.19034426,-0.639971559,200186.5,Algeria,310.0,1059.481443677496,0.8394071712660414
68,Tlimcen,34.89041424,-1.32000757,181059.0,Algeria,3190.0,1001.7542848989751,0.6596513807204859
69,Beni Ounif,32.04926984,-1.251381268,5628.0,Algeria,200.0,531.8261594991109,1.681417023414071
70,Abadla,31.01708478,-2.733306317,14364.0,Algeria,219.0,526.4315659198323,1.7624020764336263
71,Sefra,32.76041506,-0.579949383,51118.0,Algeria,310.0,237.56069195931957,3.0131039456319626
72,Skikda,36.88042198,6.899981647000001,193941.5,Algeria,3.0,301.61819347650487,3.7082266154242647
75,In Amguel,23.69394004,5.164738727,3030.0,Algeria,7370.0,337.3048269518849,1.920624700663125
76,El Bayadh,33.6903583,1.009953571,67413.0,Algeria,10.0,276.5846682701572,3.4397750089966896
77,El Oued,33.37040367,6.859984089,177497.0,Algeria,6380.0,127.77619241625524,3.7068300209759255
78,Hassi Messaoud,31.70234011,6.0544518620000005,18124.0,Algeria,151.0,155.3177705213818,3.6769562026525398
79,Chlef,36.17041363,1.319960489,449167.0,Algeria,166.0,76.98855645406832,4.926073491585673
80,Mascara,35.40040895,0.14003251,108230.0,Algeria,10.0,133.44932577662433,4.568160971358884
81,Mostaganem,35.940376,0.089983885,159177.0,Algeria,148.0,188.71467289231822,3.539380595620936
82,Saida,34.84039146,0.14003251,134855.0,Algeria,16.0,666.0737426838368,2.0406381980918966
83,Tiarat,35.38043601,1.319960489,184195.0,Algeria,10.0,385.14842171135643,3.0051126640178234
84,Bejaia,36.76037762,5.070015827,274520.0,Algeria,157.0,219.5968483154822,3.3361813464285275
85,Blida,36.4203467,2.829997517,388174.0,Algeria,4.0,268.88397837299823,3.8422649930703816
86,Bouira,36.38047833,3.900009724,110144.0,Algeria,389.0,212.1027063021363,3.2066716299867983
87,Medea,36.27040753,2.770001179,145863.5,Algeria,1173.0,147.63206535250222,3.641060418961298
88,Souk Ahras,36.29038047,7.949995075,134947.0,Algeria,1580.0,424.858188216874,2.0105273158181802
89,Tebessa,35.41043418,8.120010537,171742.0,Algeria,10420.0,404.4002182693349,1.9273118974173242
90,Adrar,27.86999005,-0.289967083,56910.0,Algeria,6.0,341.1862920087166,3.246393802190537
91,Reggane,26.69998395,0.166645873,22351.5,Algeria,6.0,20.55284830631284,7.318777405184019
92,Bechar,31.61110537,-2.230003704,142415.5,Algeria,142.0,581.5587235425613,1.8377016182326942
93,Tindouf,27.67418805,-8.147782025,18270.0,Algeria,7.0,488.61945059281635,2.5776731182284096
94,Illizi,26.48335634,8.466604369,7293.0,Algeria,13.0,450.46416386859136,2.467148692662374
95,Arak,25.279993100000002,3.749993041,423251.0,Algeria,235.0,829.3795856758661,1.2935566823084261
96,I-n-Salah,27.21664492,2.466608845,28632.0,Algeria,50.0,343.58793119983727,2.6984004232509213
97,El Golea,30.56662132,2.883327595,32049.0,Algeria,740.0,428.76461472594,1.9804658927835208
98,Laghouat,33.80998924,2.8800203030000002,108279.0,Algeria,8.0,272.3561930272357,3.552714962330783
99,Touggourt,33.0999809,6.05998124,91499.0,Algeria,165.0,187.5642262450537,3.49647393822632
100,Ouargla,31.96997235,5.340025186,176271.0,Algeria,3220.0,83.40402862901071,4.404482090873637
101,Biskra,34.85997683,5.73002722,202103.0,Algeria,235.0,118.81768792629377,4.182194644336231
102,Djelfa,34.67998781,3.250023558,170901.0,Algeria,48.0,126.47559569412273,4.3328557473222675
103,Setif,36.18002545,5.399969847,274744.0,Algeria,28.0,181.64447476288453,3.9253195879401557
104,Batna,35.56995933,6.170000365,269467.0,Algeria,49.0,503.2353190666692,2.274826154923292
105,Annaba,36.92000612,7.759980833999999,355047.0,Algeria,6590.0,339.6343600699383,2.2744169477591396
106,Constantine,36.35998863,6.5999482810000005,527638.0,Algeria,97.0,43.93986794254196,5.842478469763523
107,Oran,35.71000246,-0.61997278,721992.0,Algeria,3070.0,156.63077627136437,3.551276273099197
108,Tamanrasset,22.78500327,5.5228047270000005,71808.0,Algeria,60.0,184.17497409195704,3.6712289223392562
109,Ghardaia,32.48999229,3.669997923,125480.0,Algeria,87.0,339.28634847217796,2.7227672229722066
110,Algiers,36.763064799999995,3.05055253,2665831.5,Algeria,3.0,134.230852211402,5.075256973952074
111,Pago Pago,-14.2766105,-170.70664509999997,12038.0,American Samoa,1580.0,117.36333254288009,3.77439581911575
112,Andorra,42.50000144,1.5164859609999999,38127.0,Andorra,38.0,269.3663561488165,3.139267279228235
114,Lucapa,-8.419603659,20.74001542,25578.0,Angola,81.0,472.6037771345397,2.122503784466836
115,Capenda-Camulemba,-9.419594300000002,18.43002722,79842.5,Angola,870.0,160.07597932658825,3.5127998323936183
116,Saurimo,-9.659579652,20.39001094,40907.0,Angola,3.0,213.4903228876855,4.12564863993737
117,Muconda,-10.59962563,21.31998002,2324.0,Angola,125.0,118.56007353673232,3.931690755269969
119,Caxito,-8.579542217,13.65998246,15665.5,Angola,29.0,325.2607910749859,2.841911207934825
120,Camabatela,-8.189591859,15.37000728,12731.0,Angola,380.0,163.0723079262898,3.448816525212463
121,Ndalatando,-9.299549948,14.90998368,8144.0,Angola,380.0,330.9286604685882,2.345102514461526
122,Quibala,-10.72959186,14.97995357,5248.5,Angola,310.0,316.04756972256064,2.4029627635025403
124,Waku Kungo,-11.35952757,15.1199967,11519.5,Angola,1380.0,329.6891091156577,2.230617464450079
125,Songo,-7.349591452,14.84998734,10579.0,Angola,11.0,306.5987948782259,3.1215300852199226
126,Mbanza-Congo,-6.269605694,14.23999874,42201.0,Angola,3270.0,523.3550212819673,1.5444680923790126
127,Nzeto,-7.2295987760000004,12.86003129,19705.5,Angola,83.0,320.7954067719903,2.6848290470654446
128,Soyo,-6.1296142389999995,12.36998368,65329.0,Angola,390.0,530.0977504383803,1.7868556084475
129,Cabinda,-5.55962319,12.18999467,78905.5,Angola,2340.0,170.54428746461056,3.3132501610583818
131,Camacupa,-12.01959064,17.46998246,19489.0,Angola,47.0,309.93817280507653,2.8366679684294698
132,Cubal,-13.03958006,14.23999874,4837.0,Angola,960.0,238.21786837049666,2.6863604494554796
133,Mavinga,-15.7895414,20.36003861,30000.0,Angola,4.0,167.00468427317858,4.39104995532482
136,Ondjiva,-17.06961831,15.73003699,8748.0,Angola,6060.0,275.72041923714454,2.336518415404889
138,Chibemba,-15.74959552,14.0800085,1502.0,Angola,4.0,122.88402828670436,4.590357640955859
139,Chibia,-15.1896297,13.69000647,1411.0,Angola,2570.0,753.1743404272767,0.7235013029475553
141,Luau,-10.7095414,22.23000199,9964.0,Angola,97.0,171.28205881614852,3.550928540296136
142,Cangamba,-13.69959145,19.86001745,1307.0,Angola,8.0,144.3850782853663,4.143466633798164
145,Dundo,-7.380028871,20.82998409,11985.0,Angola,132.0,169.44308462860147,3.533740249811935
146,Ambriz,-7.85498696,13.12502803,17000.0,Angola,2570.0,31.064587661740955,5.705496476688
147,Dondo,-9.690017071,14.43001298,2353.0,Angola,3.0,566.7603881134659,2.411560157993738
148,Sumbe,-11.21002765,13.8499967,29638.5,Angola,5370.0,223.40225762398958,2.7604753113581473
149,Uige,-7.620014222000001,15.04997514,56787.5,Angola,6.0,106.25496489542154,5.000909587767838
150,Kuito,-12.38003375,16.93998897,113955.0,Angola,20.0,303.3853404537669,3.169192088748169
151,Lobito,-12.37000853,13.54123002,170733.0,Angola,13.0,260.9328995939221,3.5233568104218427
153,Luena,-11.79004393,19.90001501,17276.5,Angola,1620.0,358.41047031300457,2.1199245006876803
154,Tômbua,-15.80003172,11.85998897,40000.0,Angola,7.0,275.67689948239484,3.501737756863743
155,Malanje,-9.540000388,16.34002559,106451.0,Angola,220.0,201.6510693053284,3.3563095076558755
156,Benguela,-12.57826455,13.40723303,142017.0,Angola,7330.0,343.4224593838543,2.191930684236845
157,Lubango,-14.91000853,13.49001868,114086.5,Angola,82.0,699.5257548935801,1.6306504920591343
158,Namibe,-15.19004311,12.16002234,128130.5,Angola,160.0,699.7799770378597,1.5325395107066757
159,Menongue,-14.66661253,17.69999426,13030.0,Angola,132.0,469.47969025990454,2.002007406868177
160,Huambo,-12.74998533,15.76000932,986000.0,Angola,16.0,256.77483404253,3.6013796429600733
161,Luanda,-8.838286114,13.23442704,3562086.0,Angola,1370.0,42.097842095964545,5.663614650058109
202,Saint John's,17.11803652,-61.85003382,29862.5,Antigua and Barbuda,4.0,59.12261584265957,5.937423890714591
203,28 de Noviembre,-51.65003986,-72.30001612,5300.0,Argentina,9620.0,217.22636097845617,2.6137285564392068
204,Gobernador Gregores,-48.76659829,-70.25001205,2519.0,Argentina,2520.0,87.45429543368883,4.027980307351146
206,Paso Rio Mayo,-45.68337563,-70.26657434,1825.0,Argentina,1580.0,196.75930146686736,2.8285887090764366
207,Alto Rio Sanguer,-45.03328611,-70.83328394,1548.0,Argentina,5.0,498.7849317373471,2.4186635782708477
208,El Maiten,-42.05000568,-71.16662276,4269.0,Argentina,35.0,513.1630563998768,2.003797656074216
209,Puerto Madryn,-42.77001341,-65.04001998,61159.0,Argentina,1013.0,183.21509533030166,3.274807803859755
210,Trelew,-43.25003579,-65.3299506,93128.5,Argentina,1070.0,458.9096020217837,1.910819731438632
211,Las Heras,-32.82503904,-68.80167668,66663.0,Argentina,6.0,75.03180296269527,5.529446512040118
212,San Martin,-33.06998533,-68.49001612,99974.0,Argentina,17.0,39.4608130612354,6.23429935304549
213,Uspallata,-32.59311522,-69.34598454,2390.0,Argentina,380.0,471.67084972366587,1.6976721094100031
214,Cutral Co,-38.94001463,-69.24002202,47597.0,Argentina,470.0,507.4461854431238,1.8076918880462656
215,Punta Alta,-38.87996662,-62.079968099999995,55969.5,Argentina,1460.0,145.7646776660332,3.5731452626083873
216,San Nicolas,-33.33002114,-60.24000289,117123.5,Argentina,20.0,314.64747388257706,3.1159059817319332
217,Campana,-34.15999632,-58.95997766,77149.5,Argentina,7.0,652.8032548205819,2.2428165790032715
218,Chacabuco,-34.65004393,-60.48998763,26645.0,Argentina,111.0,1021.1475847386669,0.906026596548866
219,Mercedes,-34.66001748,-59.44002588,48408.5,Argentina,640.0,642.2079291723759,1.4148870410728007
220,Lincoln,-34.88000405,-61.53994938,19924.0,Argentina,4970.0,497.53171520227335,1.5272279955823247
221,Chivilcoy,-34.89995115,-60.03998926,43719.0,Argentina,105.0,218.77036020294088,3.2830897192549218
222,Veinticinco de Mayo,-35.42999632,-60.17998071,18749.0,Argentina,7370.0,131.15678869443437,3.498853685733524
223,Nueve de Julio,-35.44596434,-60.88998906,26716.0,Argentina,59.0,586.9132349673489,1.8525054399571388
224,Dolores,-36.33004474,-57.68997766,21586.5,Argentina,3810.0,209.79960653825222,2.862356257808649
225,Pedro Luro,-39.48334064,-62.68331629,7100.0,Argentina,840.0,207.51947525528857,2.942821984969942
226,Tres Arroyos,-38.369971899999996,-60.26994938,34773.5,Argentina,160.0,956.7082170189068,0.9687307247939111
227,Coronel Suarez,-37.46661619,-61.9166189,20713.0,Argentina,13.0,663.2488835725267,1.9653171561644822
228,Balcarce,-37.83331216,-58.24999516,18967.0,Argentina,68.0,111.69831374761048,4.302766638245733
229,25 de Mayo,-37.80003253,-67.68329533,17430.0,Argentina,5.0,273.3145092033238,3.545023742612898
230,General Roca,-39.01995807,-67.60996647,38578.0,Argentina,1150.0,564.553019820072,1.5282265669529715
232,Ingeniero Jacobacci,-41.30002562,-69.58330855,5719.0,Argentina,192.0,482.3200760259277,1.8366481445068727
233,General Conesa,-40.10004718,-64.43328699,2958.0,Argentina,6590.0,373.81298534179183,1.7725372112667608
234,Choele Choel,-39.26660968,-65.68331405,9895.5,Argentina,2570.0,45.48567493503223,5.111569865019471
235,San Francisco,-31.43003375,-62.08996749,43231.0,Argentina,7330.0,691.072970260662,1.0525730463861627
236,Alta Gracia,-31.65999388,-64.4299797,30593.0,Argentina,2240.0,174.40505468924349,3.2171505477049687
237,Villa Maria,-32.41002562,-63.26002527,76701.0,Argentina,129.0,597.2468525586322,1.7712484245756854
238,Bell Ville,-32.60003986,-62.67995732,29605.0,Argentina,300.0,122.38034516796242,3.974947941148702
239,Villa Rumipal,-32.18332111,-64.48328394,1269.0,Argentina,738.0,306.4926261244971,2.205162858005832
240,Villa Carlos Paz,-31.42000853,-64.50000126,60256.0,Argentina,3920.0,241.8574968169757,2.7198356484691817
241,Chumbicha,-28.86662433,-66.23330632,2572.0,Argentina,130.0,525.5774048522196,1.6906139777929863
243,Abra Pampa,-22.7166638,-65.6999797,4480.0,Argentina,59.0,757.3399540895288,1.3195523824685185
244,Humahuaca,-23.19999347,-65.34994938,11369.0,Argentina,8270.0,204.41520504668352,2.782750432923665
245,Susques,-23.41667275,-66.4833169,1093.0,Argentina,192.0,201.60566405998085,2.9932408057561064
246,Chepes,-31.34998696,-66.5999506,6020.0,Argentina,7.0,535.7707402283287,2.3468473249363493
247,Yacuiba,-22.03003904,-63.69999841,64811.0,Argentina,110.0,678.9560136393528,1.5902235617411888
248,Tartagal,-22.55000731,-63.81001754,59996.5,Argentina,50.0,628.9271023028806,1.8358952504668253
249,Joaquin V. Gonzalez,-25.08334105,-64.18335392,13376.0,Argentina,107.0,481.62255984106156,1.9981891014835684
250,General Guemes,-24.6666223,-65.04996769,19828.0,Argentina,8670.0,583.4401784106135,1.2373786231278432
251,Trancas,-26.21665688,-65.28331262,1599.0,Argentina,155.0,205.72302777531615,3.0341622624882736
252,Presidencia Roque Saenz Pena,-26.790006899999995,-60.45001591,75958.0,Argentina,25.0,103.72915428975746,4.706544148989405
253,Pampa del Infierno,-26.51658689,-61.16658716,2921.0,Argentina,1580.0,493.00890259649583,1.487044395330493
254,Villa Angela,-27.58329181,-60.71666629999999,30051.0,Argentina,97.0,488.827164635658,2.053621018401499
255,Ingeniero Guillermo N. Juarez,-23.90000242,-61.84998214,6453.0,Argentina,206.0,624.5204750747761,1.4456860666534093
256,Comandante Fontana,-25.33329995,-59.68331852,4277.0,Argentina,16.0,311.5490876159498,2.9283293587070713
257,Doctor Pedro P. Pena,-22.47998574,-62.29998051,6143.0,Argentina,2970.0,676.3574634250762,1.0130872616568511
258,San Lorenzo,-28.12000324,-58.76998926,25833.5,Argentina,172.0,455.87849375232014,2.0600414649507703
259,Corrientes,-27.48996417,-58.80998682,339945.0,Argentina,173.0,261.6178856034844,3.070730695472019
260,Concepcion del Uruguay,-32.47999551,-58.23999577,48275.0,Argentina,5.0,594.1913347698254,2.445431238941401
261,Victoria,-32.61001341,-60.17998071,20032.5,Argentina,3070.0,301.02556014286466,2.3320982935651973
262,Gualeguay,-33.15003213,-59.34000615,25913.0,Argentina,6.0,87.44429249118838,5.234642604684229
263,Parana,-31.73332273,-60.53334416,226852.0,Argentina,108.0,895.9248880236735,1.2539583354031554
264,Villa Constitucion,-33.23002724,-60.35002202,30282.5,Argentina,2124.0,350.7073439804468,2.167963920326096
265,Rafaela,-31.25004474,-61.49997766,69649.0,Argentina,4.0,515.8825720252297,2.7477496895717692
266,Eldorado,-26.20001707,-54.59998539,17365.0,Argentina,132.0,372.5491661504262,2.3747251179959843
271,Malargue,-35.46611815,-69.58330855,11847.0,Argentina,63.0,69.84336014757977,4.977062271588594
272,Tunuyan,-33.56618244,-69.01667647,22834.0,Argentina,49.0,267.36693421023847,3.064133958909838
273,La Paz,-33.46613686,-67.54999597,4400.0,Argentina,820.0,648.0809066179114,1.1814176794613704
274,Chos Malal,-37.38295205,-70.26657434,8556.0,Argentina,89.0,382.0059997186965,2.342165619541902
275,Las Lajas,-38.51626788,-70.36659408,1218.0,Argentina,10420.0,114.63448389089503,3.423949669411167
276,Zarate,-34.08956134,-59.04002446,86192.0,Argentina,5270.0,92.85078562898697,4.153514907993037
277,Carhue,-37.1828609,-62.73331323,7190.0,Argentina,22.0,449.23584448671113,2.3483724329285574
278,Darregueira,-37.69957355,-63.16659428,3412.0,Argentina,456.0,454.99518524205706,1.763316971414145
279,Juarez,-37.66551878,-59.80002975,10609.0,Argentina,102.0,444.2579824437345,2.1093470924838074
280,Mar de Ajo,-36.71622272,-56.67660283,13610.0,Argentina,1680.0,357.867279305078,2.0996721062299786
281,Lobos,-35.184895000000004,-59.09467228,18278.0,Argentina,35.0,1344.2974357855303,0.6648123522400414
282,Chascomus,-35.56621539,-58.01662439,21054.0,Argentina,220.0,247.51714022793806,2.9327254449588795
283,Junin,-34.58456989,-60.95887374,66141.5,Argentina,107.0,97.08938420111001,4.5272936157328525
284,La Plata,-34.90961465,-57.95996118,440388.5,Argentina,39.0,128.81360123006928,4.402522400525045
285,Pergamino,-33.89959878,-60.56998275,71448.0,Argentina,63.0,208.17937220987085,3.4777974660649615
286,Lujan,-34.57960895,-59.10999435,69744.5,Argentina,220.0,491.0113621558994,1.9834445652904553
287,Azul,-36.7796297,-59.86999964,43407.5,Argentina,2570.0,494.18737083201034,1.656306399337199
288,Villalonga,-39.88285114,-62.58332239,2838.0,Argentina,115.0,561.4668138550107,1.6190106396122872
289,Victorica,-36.21625324,-65.45002079,4458.0,Argentina,53.0,258.78943606305387,2.9638299016034257
290,General Pico,-35.65959471,-63.77001998,46483.0,Argentina,1070.0,282.13052775011107,2.598888843112317
291,San Antonio Oeste,-40.73287677,-64.93328231,8492.0,Argentina,172.0,367.9960458803732,2.295961367925973
292,Sierra Colorado,-40.58286009,-67.79998071,1522.0,Argentina,1330.0,136.08374517963068,3.3818942986122864
293,Mercedes,-33.68958576,-65.4699679,49345.0,Argentina,109.0,269.9008706856958,2.968903291062554
294,Rio Tercero,-32.1796004,-64.12002446,38049.5,Argentina,8.0,148.42311978028653,4.394781747699938
295,Belen,-27.64959267,-67.03328333,11359.0,Argentina,12.0,517.7649240296231,2.312844403193049
296,Rinconada,-22.43290851,-66.16659204,6209.5,Argentina,2820.0,534.1769377554378,1.3766710084095704
297,San Pedro,-24.21962116,-64.87000452,55249.0,Argentina,20.0,290.6334428655636,3.185248405869563
298,Libertador General San Martin,-23.81954222,-64.78998356,47559.0,Argentina,6.0,288.59222392459,3.4868126011684257
299,Chilecito,-29.16552081,-67.49999903,20343.0,Argentina,9570.0,185.9431544833756,2.959071680449114
300,Chamical,-30.34958291,-66.31666039999999,8989.0,Argentina,86.0,480.9683320081639,2.003264616719179
301,Los Blancos,-23.59960732,-62.60003972,1145.0,Argentina,100.0,127.04970189234294,3.790695163527864
302,Cafayate,-26.08291828,-65.96660425,9478.0,Argentina,3.0,381.5402089310582,3.13622179901064
303,Cerrillos,-24.89963133,-65.48330042,11498.0,Argentina,7570.0,839.2814606932552,0.6543904790605295
304,San Antonio de los Cobres,-24.18293089,-66.35001754,4000.0,Argentina,63.0,434.7491852002516,2.1387153245110015
305,Anatuya,-28.46613198,-62.83330713,14133.0,Argentina,670.0,532.0774573119185,1.6025132871707548
306,Frias,-28.64958331,-65.14998743,13594.0,Argentina,126.0,761.3161756994551,1.2798335329377788
307,Monte Quemado,-25.79962807,-62.86658675,11387.0,Argentina,12.0,544.892455236954,2.235673730440094
308,Juan Jose Castelli,-25.949541399999998,-60.61664657,9421.0,Argentina,3.0,589.0553659939643,2.4780312913470657
309,Charata,-27.21628579,-61.19999597,18297.0,Argentina,42.0,456.8795822496052,2.2661203834748367
310,Las Lomitas,-24.69959186,-60.60000676,7683.0,Argentina,80.0,146.93553374253378,3.791246155873876
311,Mercedes,-29.1795768,-58.0799797,22872.5,Argentina,23.0,293.7529718396548,3.0742772171144956
312,Concordia,-31.38957111,-58.02998275,132760.5,Argentina,12.0,419.97712249671685,2.8075219026561813
313,Sunchales,-30.93290648,-61.56661442,12655.0,Argentina,4.0,1147.9544938283511,1.4083714507205516
314,San Justo,-30.78288979,-60.58328943,9607.0,Argentina,470.0,192.71115390903753,3.148105436157915
315,Vera,-29.466174300000002,-60.21659347,9979.0,Argentina,12.0,159.9263404716309,4.0758257245523595
316,Reconquista,-29.13952757,-59.65001306,86640.5,Argentina,170.0,707.5399635598322,1.4811871593665507
317,Venado Tuerto,-33.74958209,-61.97000065,52079.0,Argentina,82.0,717.6629438633071,1.538819807565496
318,Esquel,-42.90003131,-71.31661361,20048.0,Argentina,2462.0,200.86949041374635,2.9635579489532877
319,Zapala,-38.90001707,-70.06666406,19152.0,Argentina,21.0,236.7492022229183,3.4062847924076434
320,Olavarria,-36.90003579,-60.329997399999996,65059.0,Argentina,6940.0,457.6865211087909,1.7102519487997807
321,Tandil,-37.32001015,-59.15004358,84799.5,Argentina,2970.0,328.2447546076657,2.3078283521628578
322,Viedma,-40.79995278,-63.000015299999994,54031.0,Argentina,102.0,284.0857110965213,2.9085124564178435
323,San Luis,-33.29999713,-66.35001754,308146.0,Argentina,380.0,246.06663481082737,3.0502822545776334
324,Rio Cuarto,-33.13003335,-64.34998458,135959.5,Argentina,1580.0,448.95073486312214,1.9275073549317994
325,San Salvador de Jujuy,-24.1833443,-65.30002995,258739.0,Argentina,94.0,13.891235338888345,7.4197307047848104
326,San Ramon de la Nueva Oran,-23.13999713,-64.32001225,69461.5,Argentina,8570.0,568.4105009439523,1.3686082988585744
327,Goya,-29.13999266,-59.26998458,71274.5,Argentina,16.0,484.4343319625275,2.4809821593686894
328,Puerto San Julian,-49.30000242,-67.71665247,2347.0,Argentina,420.0,418.2401421052554,1.8652840640481425
329,Perito Moreno,-46.60001219,-70.93335535,3766.0,Argentina,1170.0,65.71005835321577,4.567849570846751
330,Rio Grande,-53.79144552,-67.6989952,31095.0,Argentina,4970.0,465.66452815298254,1.6609189376052134
331,Ushuaia,-54.79000324,-68.31000126,50483.5,Argentina,155.0,61.52830624241478,5.127649098507551
332,Sarmiento,-45.60002155,-69.08331323,5185.0,Argentina,820.0,39.317663635845854,5.387154734407352
333,San Rafael,-34.60002114,-68.33333317,79523.5,Argentina,7820.0,443.49164084614006,1.761412237008736
334,Necochea,-38.55998615,-58.74999048,70562.0,Argentina,68.0,795.9056838119384,1.4347868145281044
335,Rio Colorado,-38.96657632,-64.08328251,11499.0,Argentina,5.0,218.5366256922532,3.8493218779138467
336,Catamarca,-28.47000771,-65.78000065,162586.0,Argentina,2720.0,630.0145344700684,1.3715266668560029
337,La Rioja,-29.40995034,-66.84996118,147130.0,Argentina,470.0,162.75940773940582,3.600188480419039
338,Santiago del Estero,-27.78333128,-64.26665633,317549.5,Argentina,960.0,453.77545803996435,2.0171860361083667
339,Resistencia,-27.45999184,-58.99002751,368455.5,Argentina,280.0,444.54720396518934,2.206811415803934
340,Gualeguaychu,-33.02001422,-58.52000452,55860.5,Argentina,166.0,30.443605002791774,6.146551047327414
341,El Calafate,-50.33332436,-72.30001612,6329.0,Argentina,18.0,664.0556709599131,1.7901291897943765
342,San Juan,-31.55002643,-68.51998845,433892.0,Argentina,10320.0,304.1713180953119,2.415110222106111
343,Rawson,-43.30000689999999,-65.09999048,25062.5,Argentina,4260.0,497.3985843536123,1.5589458482759977
344,Neuquen,-38.95003986,-68.05999068,213823.5,Argentina,1150.0,524.2178045052841,1.7548140105562096
345,Santa Rosa,-36.620001200000004,-64.29998763,97693.5,Argentina,208.0,352.5849782077348,2.5151709865475635
346,San Carlos de Bariloche,-41.14995726,-71.29999964,91953.0,Argentina,106.0,428.2324580206291,2.318047980158207
347,Salta,-24.78335936,-65.41663782,484646.0,Argentina,2970.0,372.43046120954455,2.22551317525501
348,Tucumán,-26.81600014,-65.21662419,678803.5,Argentina,84.0,183.89796674860756,3.754677773229651
349,Formosa,-26.17283527,-58.18281579999999,202272.0,Argentina,42.0,534.370131746062,2.1953388442134565
350,Santa Fe,-31.62387205,-60.69000126,393504.0,Argentina,50.0,343.10746249956503,2.8734418363774044
351,Rosario,-32.95112954,-60.66630762,1094784.5,Argentina,2070.0,100.20392478345548,4.2811787065574345
352,Puerto Deseado,-47.75001951,-65.89996749,3305.0,Argentina,22.0,267.36432625713206,3.0633727631910883
353,Rio Gallegos,-51.63329669,-69.21658675,77183.0,Argentina,1770.0,41.41332205442407,5.438118502146017
354,Comodoro Rivadavia,-45.87003091,-67.49999903,123291.0,Argentina,5.0,351.4597430947802,3.303879596383403
355,Mendoza,-32.88333006,-68.81661117,827815.0,Argentina,84.0,137.70183226036457,4.2003049367713166
356,Bahia Blanca,-38.74002684,-62.2650214,279041.0,Argentina,3.0,371.5727144730134,3.4152908950940652
357,Mar del Plata,-38.00002033,-57.57998438,554916.0,Argentina,226.0,501.7807313827477,2.0765258931635757
358,Córdoba,-31.39995807,-64.18229456,1374467.5,Argentina,107.0,436.99112402564083,2.4474073198714716
359,Posadas,-27.3578321,-55.88510735,334589.5,Argentina,68.0,381.8648217283086,2.646788446394914
360,Buenos Aires,-34.60250161,-58.39753137,11862073.0,Argentina,166.0,86.68673922754911,4.920562187996593
361,Ashtarak,40.3016667,44.3591667,18779.0,Armenia,92.0,283.942823956189,2.8484442598034816
362,Ijevan,40.875555600000006,45.1491667,14737.0,Armenia,99.0,288.1465053938182,2.795361414319803
363,Artashat,39.953888899999995,44.5505556,20562.0,Armenia,6.0,371.7292350992495,3.042533816592257
364,Gavarr,40.3588889,45.1266667,21680.0,Armenia,5570.0,790.3524086821566,0.8219821017569475
365,Yeghegnadzor,39.7611111,45.3333333,8200.0,Armenia,6.0,354.98275043963673,3.038404038221734
366,Gyumri,40.78943402,43.84749385,140277.5,Armenia,102.0,388.09669943720183,2.5007268158089953
367,Vanadzor,40.81276593,44.48828162,89295.0,Armenia,235.0,304.7840211940649,2.7124068685546785
368,Yerevan,40.18115074,44.51355139,1097742.5,Armenia,13.0,749.6713410901193,2.0351336890926905
369,Oranjestad,12.53038373,-70.02899195,50887.5,Aruba,111.0,278.53332761633845,2.9206558526223123
370,Central Coast,-33.42004148,151.3000048,3026.0,Australia,87.0,183.355476138821,3.360963511823043
371,Sunshine Coast,-26.67998777,153.0500272,57215.5,Australia,2070.0,31.888001096341508,5.778590956826653
372,Bourke,-30.1,145.93333330000002,2475.0,Australia,5370.0,492.0300692657814,1.357360706722693
375,McMinns Lagoon,-12.53289264,131.0500264,5025.0,Australia,111.0,300.0400288049083,2.6256075843745488
378,Wagin,-33.29958372,117.3499841,1037.5,Australia,1150.0,411.4613510365642,1.6887696071032983
379,Roebourne,-20.7829317,117.13330479999999,11281.5,Australia,1460.0,318.8298986171389,2.273646567215081
381,Tom Price,-22.69346108,117.7930578,1822.0,Australia,7200.0,381.9090396843763,1.6849948739455483
382,Kalbarri,-27.66618081,114.1666642,1537.0,Australia,13.0,500.5896222880514,2.1611452097457096
385,Port Denison,-29.28282632,114.91664420000001,1213.0,Australia,14.0,218.83645962462666,3.3689655534989416
386,Merredin,-31.48284707,118.2666723,2054.0,Australia,4.0,780.8600061528333,1.8306598198967174
387,Mount Barker,-34.632784,117.66660559999998,1771.5,Australia,220.0,341.7142656120798,2.2283651309558246
388,Katanning,-33.69955931,117.55007520000001,3140.0,Australia,5070.0,325.1990686941745,2.0118679129483277
389,Narrogin,-32.93288776,117.1666361,3995.0,Australia,18.0,25.104148385659528,6.618186586817651
390,Gingin,-31.34957355,115.90004679999998,1446.0,Australia,8870.0,75.9299324566709,4.068651362938668
391,Bunbury,-33.34428384,115.6502429,26683.5,Australia,20.0,240.44883653722835,3.41890883761782
392,Kwinana,-32.23939004,115.77023559999999,18817.5,Australia,200.0,253.76114135255017,2.8999160776663477
395,Queanbeyan,-35.354600399999995,149.2113468,32408.0,Australia,63.0,308.10196588426953,2.8305214756425956
396,Tweed Heads,-28.1825834,153.5466377,33065.0,Australia,456.0,1092.2969873979657,0.6225460261696953
399,Merimbula,-36.89962238,149.9000386,3607.5,Australia,150.0,498.6733596492275,1.7806086283866247
400,Echuca,-36.12959186,144.75001699999999,13460.0,Australia,6.0,6.008783365002642,8.853774396281295
401,Deniliquin,-35.5295768,144.95000480000002,6019.5,Australia,6.0,385.18105096479593,2.8883753555913714
402,Nowra,-34.88284625,150.6000476,61036.5,Australia,6.0,426.0237756538463,2.9152885581975214
403,Ulladulla,-35.34953611,150.47002969999997,6811.0,Australia,18.0,346.653421674848,2.7808773922845673
404,Batemans Bay,-35.68961871,150.20730669999998,5604.0,Australia,86.0,378.32245232063735,2.3261140259751922
405,Cooma,-36.23955931,149.1200345,5661.5,Australia,414.0,255.45851414532424,2.6938954616342694
406,Tumut,-35.30959023,148.2200378,4873.0,Australia,750.0,1218.789967418865,0.24242606553856688
407,Leeton,-34.54493406,146.39730669999997,6277.0,Australia,107.0,257.98176386733047,2.879053798209774
408,Young,-34.30959959,148.2900077,6422.0,Australia,10320.0,1061.850471924024,0.22260179977926484
409,Cowra,-33.82962889,148.68000969999997,5729.5,Australia,476.0,174.51573900977996,3.251647459962633
410,Forbes,-33.38960407,148.0199983,4076.5,Australia,3.0,474.18150364751983,2.7337120048177113
411,Goulburn,-34.74957273,149.7101794,16444.0,Australia,72.0,625.3715685596587,1.6842896743394946
412,Kiama,-34.70957518,150.8400329,10379.0,Australia,2540.0,366.3925436126426,2.000960837288498
413,Katoomba,-33.70694904,150.320013,20334.5,Australia,200.0,142.4132449239082,3.7751130753464297
414,Richmond,-33.59951373,150.73998730000002,9720.0,Australia,3.0,273.42032654256354,3.641916327988331
415,Lithgow,-33.49610919,150.152788,10338.0,Australia,6920.0,357.3398106946864,1.9470464529369387
416,Parkes,-33.12956826,148.17001499999998,7160.0,Australia,6.0,181.0352216013917,4.042779187436269
417,Bathurst,-33.41962807,149.5700329,6111.0,Australia,29.0,239.69934172910064,3.2248538654376904
418,Maitland,-32.72096271,151.555028,10026.5,Australia,148.0,388.0677805495269,2.25164866250034
419,Singleton,-32.56949909,151.1600134,8340.5,Australia,224.0,439.2649768867541,1.9889600991238259
420,Mudgee,-32.58960122,149.58010980000003,5391.0,Australia,5.0,577.3993277406647,2.316119301756915
421,Muswellbrook,-32.26956907,150.890004,8171.0,Australia,83.0,669.5737686886125,1.4998054727150636
422,Taree,-31.89760211,152.4618461,30131.5,Australia,960.0,254.32214967561157,2.736112512726512
423,Kempsey,-31.08736733,152.82203080000002,10681.0,Australia,2430.0,858.9250264175081,0.7166806527546017
424,Gunnedah,-30.987011699999996,150.2622904,6204.0,Australia,52.0,361.2485960243854,2.492691588674323
425,Coffs Harbour,-30.307053200000002,153.11229730000002,48961.0,Australia,1070.0,115.76855736309686,3.9419348166824286
426,Narrabri,-30.33190957,149.78743569999997,6105.5,Australia,141.0,269.5801252170575,2.767486698679691
427,Inverell,-29.7667761,151.1125744,6845.5,Australia,31.0,204.97222041307185,3.4568569383987096
428,Yamba,-29.42299136,153.35331200000002,1806.0,Australia,12.0,248.2356202065585,3.2578350296458063
429,Ballina,-28.86135333,153.5679801,13997.5,Australia,5.0,624.604944075757,2.2770529184107944
430,Wagga Wagga,-35.12215981,147.3399882,45549.0,Australia,5.0,544.1664430474405,2.574601066957885
431,Scone,-32.07960651,150.8501098,4624.0,Australia,153.0,581.6967484341225,1.56701582239847
432,Byron Bay,-28.65650796,153.6128869,5244.5,Australia,105.0,399.3432208877204,2.2059416459594345
433,Berri,-34.28293455,140.6000378,4523.0,Australia,220.0,503.6607423739052,1.7309593679734359
434,Peterborough,-32.96616738,138.8333239,1351.0,Australia,244.0,37.08240409139634,5.492445401577649
435,Wallaroo,-33.9328784,137.63329380000002,2442.0,Australia,160.0,1020.3947599177267,0.648170505484997
436,Clare,-33.8328845,138.60000480000002,2729.0,Australia,265.0,204.22426881223998,3.0223756946577636
439,Bordertown,-36.31619546,140.7666426,1976.0,Australia,3620.0,545.71060116082,1.2140026275971518
440,Penola,-37.38295205,140.8166654,1513.0,Australia,3190.0,669.5969984339595,0.888516600765885
445,Tumby Bay,-34.38292845,136.08331090000001,1791.0,Australia,172.0,232.72670904235028,2.844574317795927
448,Port Pirie,-33.19106321,137.99001619999999,12417.0,Australia,9620.0,169.51694338979485,3.058919585272781
449,Gawler,-34.60735919,138.72635369999998,15542.5,Australia,235.0,389.7350928396696,2.2140713053571233
450,Murray Bridge,-35.12960122,139.26001619999997,14185.5,Australia,27.0,325.4968183183712,2.8478759990340303
451,Victor Harbor,-35.55960081,138.61731640000002,7489.0,Australia,9570.0,269.45667884569093,2.3192144308246876
452,Hamilton,-37.73119953,142.0234135,6992.5,Australia,60.0,645.2178299341879,1.598743595535292
454,Colac,-38.33953449,143.58001090000002,7450.0,Australia,63.0,85.61684843068528,4.636651457955958
455,Stawell,-37.05961261,142.7600093,4596.0,Australia,6120.0,292.4283641955087,2.190904719593327
456,Horsham,-36.70960814,142.19001830000002,11985.5,Australia,22.0,530.458974595666,2.1391899645795047
457,Ararat,-37.27954751,142.9099743,5464.0,Australia,23.0,136.1311950534315,4.115092047064491
458,Maryborough,-37.04958738,143.729976,5838.5,Australia,27.0,294.1849215194083,2.926618135637387
459,Bairnsdale,-37.82959145,147.60999750000002,9427.0,Australia,18.0,271.54259939943137,3.1773449370980984
460,Sale,-38.10957436,147.06000519999998,17701.5,Australia,10080.0,683.4257827960577,0.9762892427442511
461,Traralgon,-38.19959471,146.5300118,16982.5,Australia,2170.0,1226.0455693503732,0.22473278313576778
462,Wonthaggi,-38.60949217,145.59001750000002,4471.5,Australia,7.0,151.25923154616595,4.229475049847835
463,Cranbourne,-38.09960081,145.28336950000002,249955.0,Australia,7.0,557.5584837227294,2.5574136428977803
464,Ballarat,-37.55958209,143.8400468,73404.0,Australia,140.0,258.15999435644443,3.0247125961577903
465,Melton,-37.68954832,144.570028,29750.0,Australia,1020.0,180.43063823603723,3.245672348676724
466,Seymour,-37.03423948,145.1273067,3693.0,Australia,35.0,1305.6330876520171,0.5739018348490342
467,Shepparton,-36.37458982,145.39137319999998,33430.5,Australia,1810.0,431.9158851467353,1.8761183569702204
468,Cobram,-35.91963051,145.6500138,4659.0,Australia,21.0,289.3411755906296,2.985887503731457
469,Swan Hill,-35.33961424,143.54001340000002,9073.0,Australia,83.0,123.14823263878584,4.063711092131237
470,Sunbury,-37.56960732,144.71001950000002,18677.5,Australia,2720.0,445.92993072881967,1.7438894012872257
471,Proserpine,-20.41623574,148.5834781,3976.0,Australia,2570.0,49.64305369782456,4.904598009274886
474,Barcaldine,-23.56617267,145.28336950000002,1068.0,Australia,6.0,24.776749771506342,6.782689695897329
475,Winton,-22.39962889,143.0332743,1157.0,Australia,50.0,432.73597350201015,2.0644701914906465
476,Longreach,-23.44959064,144.25004760000002,2894.0,Australia,165.0,193.37099569513336,3.1769178063771966
477,Caboolture,-27.08296059,152.9499816,26495.5,Australia,21.0,301.0050386750773,3.068450146952345
478,Warwick,-28.22924721,152.02032260000001,10024.0,Australia,99.0,129.4799531688399,3.9679609061119
479,Kingaroy,-26.53896279,151.840592,7494.5,Australia,9.0,207.36172544097144,3.7339576704378836
480,Dalby,-27.19385822,151.26574340000002,9818.5,Australia,4870.0,273.9045057553721,2.3754253438477817
481,Bongaree,-27.07872313,153.1508996,10327.5,Australia,21.0,199.69625744521062,3.613590538176202
482,Gympie,-26.18859658,152.6709289,11338.0,Australia,29.0,356.01914600388784,2.6794175158297966
483,Ingham,-18.64957355,146.16662309999998,5996.5,Australia,32.0,919.5238250592454,1.1676913783649343
489,Hervey Bay,-25.28870319,152.8409444,25114.0,Australia,24.0,663.0879104960285,1.8396754127069206
490,Biloela,-24.39356403,150.49607460000001,4366.5,Australia,8.0,225.00958487396542,3.5942480695121106
491,Yeppoon,-23.13291746,150.7567305,6450.5,Australia,7850.0,415.3547152426847,1.6688540452522098
492,Emerald,-23.51222247,148.1673278,7489.0,Australia,4070.0,75.2211790561619,4.30547243815036
493,Moranbah,-22.00156533,148.0380334,7357.0,Australia,4.0,449.67977161376876,2.7846006903098273
494,Charters Towers,-20.08090737,146.2587105,8369.5,Australia,19.0,333.81128766797013,2.8432094136118926
495,Ayr,-19.57024087,147.3994677,7166.0,Australia,160.0,928.9374203136715,0.8889319071720007
496,Atherton,-17.27027789,145.469353,6132.5,Australia,113.0,24.1924322307402,6.35882206279871
497,Port Douglas,-16.48458812,145.4587219,2004.5,Australia,5270.0,278.6127183052708,2.198439051628429
498,Smithton,-40.83292234,145.1166613,3351.0,Australia,235.0,393.4178663181627,2.0682364365036014
499,Scottsdale,-41.14949217,147.5166699,1683.5,Australia,151.0,680.3701616655471,1.2345566369624073
501,Oatlands,-42.29960285,147.3666015,1157.0,Australia,192.0,171.8226331926177,3.2399003389389383
502,Queenstown,-42.08292356,145.5500199,1658.0,Australia,5520.0,215.8700376954301,2.5600192039163705
503,Kingston,-42.99113686,147.3084139,12652.0,Australia,36.0,268.02648957521046,3.073461843615956
504,Tennant Creek,-19.65002928,134.20001499999998,3490.5,Australia,3.0,403.63340562274834,2.9632485164888624
507,Norseman,-32.20001259,121.76661370000001,1004.0,Australia,60.0,149.04221570245508,3.623688922670796
508,Halls Creek,-18.26670286,127.76671259999999,1209.0,Australia,132.0,560.9328713283767,1.5128749060904703
509,Kununurra,-15.76659707,128.7333203,5229.5,Australia,212.0,591.4503227577973,1.5056770986137697
510,Derby,-17.29999184,123.9666345,3199.0,Australia,9.0,51.12945068840337,5.743248260486601
512,Exmouth,-21.93109987,114.1233469,1085.0,Australia,6570.0,638.6993979442926,0.8596803088115669
513,Carnarvon,-24.89983803,113.65010659999999,7392.0,Australia,15.0,660.7518821909885,1.8534692470481646
514,Newman,-23.36659829,119.73330109999999,2678.0,Australia,160.0,169.56743451875715,3.3716041588047547
517,Manjimup,-34.23332518,116.15000570000001,4016.5,Australia,530.0,249.49155073634407,2.6683519692894655
518,Northam,-31.65658323,116.6533858,5330.0,Australia,116.0,503.15633289586725,1.8417564115349117
519,Esperance,-33.857307,121.8888973,7205.0,Australia,52.0,448.1090846623389,2.179539736248714
523,Albury,-36.06003538,146.9200138,68534.0,Australia,140.0,138.8498848671832,3.9532002777383886
524,Forster-Tuncurry,-32.19313963,152.5266483,13275.5,Australia,112.0,635.9844848950842,1.569077024821911
525,Port Macquarie,-31.44501992,152.9186657,42070.0,Australia,27.0,303.4023629322667,3.035988502195905
526,Tamworth,-31.10261188,150.9171342,35080.0,Australia,1980.0,252.35780112704177,2.682858507582489
527,Grafton,-29.71199909,152.93768269999998,7871.5,Australia,87.0,100.29420786526373,4.350598889599016
528,Moree,-29.469895,149.8300687,8062.0,Australia,48.0,97.5280895261102,4.498862320681631
529,Goondiwindi,-28.55480874,150.325284,4251.0,Australia,42.0,990.9875150274141,0.9697776478517868
530,Lismore,-28.81665322,153.2931132,28065.5,Australia,3300.0,569.3143479546612,1.3863757334001152
531,Wollongong,-34.41538125,150.890004,201319.5,Australia,16.0,585.5734231589223,2.261270278772465
532,Ceduna,-32.09913464,133.66226740000002,1252.5,Australia,4.0,143.56965065661404,4.3381761711372615
533,Mount Gambier,-37.83134845,140.7650406,21818.5,Australia,1820.0,244.26942490571386,2.705173852233584
534,Port Augusta,-32.49002073,137.77002969999998,11186.5,Australia,2570.0,323.280331575432,2.1952387745190776
535,Warrnambool,-38.37999713,142.47000119999998,29882.0,Australia,230.0,205.7059420511934,3.231754341080828
536,Mildura,-34.18500771,142.1513643,33324.5,Australia,144.0,452.72856813146836,2.115670276319887
537,Geelong,-38.16749505,144.3956335,149336.0,Australia,81.0,22.1694028352173,6.772374733044475
540,Charleville,-26.40000486,146.25002880000002,1900.0,Australia,19.0,351.18965519703505,2.630210772684122
542,Caloundra,-26.80003213,153.1333296,33737.0,Australia,25.0,101.21894611141013,4.686090233471413
543,Roma,-26.55937498,148.7907006,4560.5,Australia,830.0,136.30197739878724,3.536952172491001
544,Toowoomba,-27.56453327,151.9555204,86711.0,Australia,99.0,214.50064413354562,3.369470768889704
547,Weipa,-12.66663125,141.86662719999998,2830.0,Australia,235.0,904.9526718784854,0.7897699687011358
549,Cloncurry,-20.69999103,140.49999219999998,1202.0,Australia,24.0,434.5591139419738,2.2088708436004865
550,Maryborough,-25.54910073,152.7209,18920.5,Australia,3190.0,1124.0249584477729,0.3278423822396557
551,Bundaberg,-24.87906411,152.35089680000002,46062.0,Australia,1620.0,961.0351917823355,0.6980366530958819
552,Gladstone,-23.853338600000004,151.2467264,29055.0,Australia,43.0,218.40794681946042,3.4118338453426498
553,Bowen,-20.00132566,148.208669,10983.0,Australia,87.0,58.1629666482057,5.185544996027019
554,Innisfail,-17.53134723,146.03867219999998,9707.0,Australia,5370.0,533.6530721103356,1.3568397156015877
555,Mackay,-21.14389158,149.15000690000002,66053.5,Australia,181.0,368.8275028503365,2.4405311916856727
556,Burnie,-41.06660317,145.91666419999999,18490.5,Australia,440.0,758.9094422129934,1.135857904826535
557,Launceston,-41.44983559,147.13018180000003,65106.5,Australia,3300.0,685.2450229876445,1.165442797508185
558,Katherine,-14.46662474,132.266593,8171.5,Australia,6.0,357.1115366424323,3.02906832338488
559,Busselton,-33.65640949,115.3486592,9595.0,Australia,11.0,716.4766404284512,1.8282705564323194
560,Mandurah,-32.52348259,115.7470567,52866.0,Australia,110.0,247.3352511490971,3.1040508963002136
561,Broome,-17.96177069,122.23076809999999,11890.5,Australia,18.0,294.5469777382218,3.073589613259834
562,Kalgoorlie,-30.73539915,121.4600175,32058.0,Australia,83.0,652.8725720302796,1.6455139493484148
563,Albany,-35.016946600000004,117.8916048,25179.0,Australia,50.0,216.27347785280082,3.387619921606482
564,Port Hedland,-20.31040241,118.6060315,8997.0,Australia,25.0,112.81169726224594,4.421157227311595
565,Karratha,-20.73037677,116.8700134,16636.0,Australia,1470.0,247.2657602427092,2.6877762721986174
566,Geraldton,-28.76663043,114.59997109999999,27065.0,Australia,750.0,259.4318974943313,2.7259033230676355
567,Griffith,-34.29001422,146.0400158,11664.5,Australia,2240.0,27.55144477753184,5.8597602230474095
568,Orange,-33.27999835,149.0999841,36708.0,Australia,1150.0,304.64123366426185,2.4582428348026695
569,Dubbo,-32.25995726,148.5973274,30467.5,Australia,68.0,861.8798422366258,1.2545063539113752
570,Armidale,-30.51231199,151.667476,21793.5,Australia,750.0,419.1022622570655,1.9846268181939808
571,Broken Hill,-31.94995034,141.43311359999998,17232.5,Australia,27.0,787.2597814124208,1.5254804643867155
572,Port Lincoln,-34.73324298,135.86658,12438.5,Australia,3370.0,528.1419834659549,1.435216283362439
573,Whyalla,-33.02502684,137.5614119,21102.0,Australia,2070.0,101.90381770640492,4.0020990932879466
574,Portland,-38.33999957,141.59000319999998,10324.5,Australia,5.0,621.0355166722618,2.261108108750519
575,Bendigo,-36.75999266,144.2800199,68790.0,Australia,2370.0,206.35143117226812,3.015916563153642
576,Wangaratta,-36.36001707,146.3,11369.5,Australia,218.0,200.8643348607099,3.200211847708935
578,Mount Isa,-20.72386554,139.490028,27596.0,Australia,135.0,476.6172348376417,2.033677719954643
579,Rockhampton,-23.36391111,150.52000080000002,59024.5,Australia,46.0,285.3671278326113,3.046323357269632
580,Cairns,-16.88783986,145.7633309,132107.0,Australia,1820.0,247.25423279571265,2.8128682211624003
581,Gold Coast,-28.08150429,153.44824580000002,429954.5,Australia,185.0,849.6176352459426,1.2915876459851376
582,Devonport,-41.19266757,146.3311017,17932.5,Australia,8220.0,187.22478264048058,2.951725225612854
583,Darwin,-12.42535398,130.8500386,82973.0,Australia,157.0,330.0401282244677,2.644817926254452
584,Alice Springs,-23.70099648,133.8800345,26949.0,Australia,46.0,231.72760346470793,3.3042283725168065
585,Canberra,-35.28302855,149.1290262,280866.0,Australia,36.0,637.840731422531,1.9772843828600342
586,Newcastle,-32.84534788,151.81501219999998,816285.5,Australia,9.0,57.9961184666452,5.955846347352466
587,Adelaide,-34.93498777,138.60000480000002,990677.0,Australia,60.0,708.2104455558433,1.7953928031714002
588,Townsville,-19.24995034,146.76999709999998,129212.0,Australia,108.0,987.595659949121,1.07060068593804
589,Brisbane,-27.45503091,153.03509269999998,1393176.5,Australia,97.0,576.195818454475,2.0450167974857227
590,Hobart,-42.85000853,147.2950297,64285.0,Australia,12.0,133.8195757865931,4.483281816568898
591,Perth,-31.95501463,115.8399987,1206108.0,Australia,160.0,563.806312534477,1.9927522053172753
592,Melbourne,-37.82003131,144.97501619999997,2131812.5,Australia,970.0,218.07624057635115,3.22969263572435
593,Sydney,-33.92001097,151.18517980000001,4135711.0,Australia,10.0,395.5558042073865,3.1384746815698565
594,Bregenz,47.51669707,9.766701588,26928.0,Austria,15.0,100.6238174856549,4.793273157747253
595,Eisenstadt,47.83329908,16.53329747,13165.0,Austria,8070.0,494.5910767295259,1.4615956940249233
596,Wiener Neustadt,47.81598187,16.24995357,60621.5,Austria,28.0,249.54575157724182,3.3490641559074774
597,Graz,47.077758200000005,15.41000484,242780.0,Austria,456.0,295.64417227148226,2.735850975960815
598,Klagenfurt,46.62034426,14.310020300000001,88588.0,Austria,47.0,523.4768546496526,2.1520141892623323
599,Linz,48.31923281,14.28878129,265161.5,Austria,5.0,386.70827954919514,3.2074329916204842
600,Passau,48.56704714,13.46660925,50000.0,Austria,4.0,135.03652692591726,4.746700897395948
601,Salzburg,47.81047833,13.0400203,178274.0,Austria,265.0,612.2838765565504,1.6848764853678688
602,Innsbruck,47.28040733,11.4099906,133840.5,Austria,3190.0,577.9248200136117,1.4747441858244819
603,Vienna,48.20001528,16.36663896,2065500.0,Austria,27.0,235.95230297628487,3.65251208657053
604,Gadabay,40.5655556,45.8161111,8657.0,Azerbaijan,8220.0,583.8483809925507,1.174300189275536
605,Goranboy,40.6102778,46.7897222,7333.0,Azerbaijan,105.0,572.3821041646879,1.6899528256548981
606,Tovuz,40.9922222,45.6288889,12626.0,Azerbaijan,60.0,515.7423345191733,1.987315420701755
608,Qabala,40.9813889,47.845833299999995,11867.0,Azerbaijan,7330.0,873.8750964271419,0.5984178385560668
609,Oguz,41.0708333,47.4583333,6876.0,Azerbaijan,107.0,541.3727217474822,1.765832335512458
610,Ganca,40.68499595,46.35002844,301699.5,Azerbaijan,140.0,801.9384926697159,1.3992592338088397
611,Yevlax,40.61719647,47.15003129,50014.0,Azerbaijan,16.0,513.566419557314,2.3680317665677277
612,Sumqayt,40.58001528,49.62998328,272154.5,Azerbaijan,12.0,313.7413424282579,3.2935112390471883
613,Ali Bayramli,39.93230288,48.92025915,70452.0,Azerbaijan,16.0,481.6132374665309,2.4890374973492557
614,Goycay,40.65342165,47.74058956,35031.5,Azerbaijan,85.0,303.91243045001926,2.805554598382374
615,Lankaran,38.7540027,48.85106441,60180.0,Azerbaijan,14.0,217.23614072030114,3.7130147745372253
616,Saki,41.19232932,47.17054683,63579.5,Azerbaijan,940.0,373.9733940306538,2.209002516777173
617,Stepanakert,39.81564333,46.75196773,57473.0,Azerbaijan,155.0,167.13371623087238,3.647534051881333
618,Kapan,39.20152061,46.41498572,37724.0,Azerbaijan,25.0,196.94400552686372,3.6962934137109857
619,Naxcivan,39.2092204,45.41220455,79771.0,Azerbaijan,2070.0,151.57808937021363,3.503174166522878
620,Baku,40.39527203,49.86221716,2007150.0,Azerbaijan,192.0,431.91553754187055,2.397063647764286
621,Manama,26.23613629,50.58305172,360697.0,Bahrain,27.0,136.6489174162005,4.376715554901583
622,Tangail,24.24997845,89.92003048,180144.0,Bangladesh,3270.0,335.5713250112059,2.3142496274301307
623,Sylhet,24.90355613,91.87360632,237000.0,Bangladesh,40.0,249.2663131175503,3.3677757911927464
624,Mymensingh,24.75041302,90.38000240000001,330126.0,Bangladesh,108.0,89.70505638743873,4.746446507817167
625,Jamalpur,24.90042971,89.95000281,167900.0,Bangladesh,3190.0,194.84923570552425,3.1323650750710734
626,Narayanganj,23.62040448,90.49999508,223622.0,Bangladesh,83.0,18.188165716366697,7.067359192786673
627,Jessore,23.17043194,89.19997107,243987.0,Bangladesh,820.0,700.84905376079,1.3600960947829737
628,Barisal,22.70040895,90.37498979,202242.0,Bangladesh,52.0,375.8285196097382,2.6881142181280357
629,Comilla,23.47041363,91.16998002,389411.0,Bangladesh,1860.0,18.667491682644187,6.664007518256276
630,Pabna,24.00038129,89.24999385,137888.0,Bangladesh,4.0,496.052419535021,2.8523263169584774
631,Nawabganj,24.58039756,88.34999711,142361.0,Bangladesh,234.0,320.41335042295646,2.6679177944388677
632,Saidpur,25.80042645,88.99998328,232209.0,Bangladesh,33.0,489.19304893788126,2.3851239402870306
633,Rangpur,25.75001609,89.28001786,285564.0,Bangladesh,4.0,273.04941148603126,3.8006989449827606
634,Khulna,22.839987,89.56000077,1447669.5,Bangladesh,2070.0,430.1816733435303,2.10351191129696
635,Rajshahi,24.37498374,88.60502029999999,755066.5,Bangladesh,3.0,256.8344461696053,4.031395002717899
636,Dhaka,23.72305971,90.40857947,9899167.0,Bangladesh,20.0,237.96192604174152,3.782639344833649
637,Chittagong,22.32999229,91.79996741,4224611.0,Bangladesh,39.0,895.8670434804416,1.5950706852798
638,Bridgetown,13.10200258,-59.61652674,143865.0,Barbados,8.0,358.55832655795194,3.155608708378132
639,Baranavichy,53.13684572,26.01344031,156514.5,Belarus,151.0,220.1090961585129,3.3035559440213653
640,Polatsk,55.48938946,28.78598425,79216.0,Belarus,4870.0,346.5634479751665,2.1755464740753516
641,Maladzyechna,54.31878908,26.86532629,96055.0,Belarus,250.0,49.72022307055955,5.416230483774509
642,Pinsk,52.12786338,26.09405554,120838.5,Belarus,270.0,240.81061148509704,3.0690601229469725
643,Mazyr,52.04595624,29.27215613,100936.0,Belarus,32.0,162.37842373137886,4.003022952361657
644,Mahilyow,53.89850466,30.32465002,343527.0,Belarus,2170.0,1353.7850900373733,0.27882554862535747
645,Babruysk,53.12656211,29.19278113,212821.5,Belarus,106.0,724.4202708809602,1.575329159869012
646,Orsha,54.51531455,30.42154333,130276.5,Belarus,460.0,235.98076804308857,3.0358229251351845
647,Lida,53.88847943,25.28464758,99126.0,Belarus,165.0,207.40207651556847,3.3504224843903487
648,Hrodna,53.67787213,23.83409013,285867.0,Belarus,3190.0,718.3236987158193,1.192409656502326
649,Barysaw,54.22600405,28.49215206,127694.5,Belarus,17.0,432.72641030524284,2.6764816274017007
650,Homyel,52.43001548,31.00000932,472337.5,Belarus,63.0,507.90154355413654,2.2487110223466122
651,Vitsyebsk,55.18871014,30.18533036,333318.5,Belarus,7370.0,229.06131291516658,2.8557585678024737
652,Brest,52.09998395,23.69998979,266775.0,Belarus,6520.0,283.0967058224026,2.5332706470337807
653,Minsk,53.89997744,27.56662716,1691069.0,Belarus,97.0,394.66366925382204,2.628431930544935
654,Mons,50.44599911,3.9390035610000003,91277.0,Belgium,1580.0,326.778108802981,2.381964956836341
655,Hasselt,50.96400317,5.483997561,69222.0,Belgium,27.0,615.6964182921563,1.9995500562553832
656,Arlon,49.68330313,5.816700472000001,26179.0,Belgium,12.0,206.23515584926946,3.769038864487492
657,Gent,51.02999758,3.700021931,337914.5,Belgium,1720.0,277.22531333002695,2.70420144274567
658,Liege,50.62999615,5.580010537000001,472803.0,Belgium,117.0,348.00816737738853,2.718109579616122
659,Brugge,51.22037355,3.230024779,131589.0,Belgium,113.0,391.7052124068936,2.4663249395629716
660,Namur,50.47039349,4.870028034,97155.5,Belgium,3.0,204.46996412839604,4.250224154046657
661,Charleroi,50.42039654,4.450001992,272749.5,Belgium,440.0,267.512890479473,2.8983695352052194
662,Antwerpen,51.22037355,4.415017048,689902.5,Belgium,370.0,422.76309469487785,2.282757287572814
663,Brussels,50.83331708,4.3333166080000005,1381011.0,Belgium,5570.0,289.86720239983026,2.6053358126752144
664,El Cayo,17.15599807,-89.06100252,13451.0,Belize,1580.0,226.63474818750728,2.7948793801415253
665,Corozal,18.39799811,-88.3880005,8724.0,Belize,25.0,208.08700726752426,3.499674525112136
666,Dangriga,16.97003522,-88.22000045,8506.0,Belize,3.0,263.06451659493337,3.689073971135082
667,Belize City,17.49871096,-88.18837447,62244.5,Belize,1770.0,182.89840687934574,3.2197556844063295
668,Orange Walk,18.09043194,-88.5599797,18066.5,Belize,68.0,300.9254490531196,2.8087211366729856
669,Punta Gorda,16.1003467,-88.81001612,6387.0,Belize,108.0,756.237962201565,1.2512497813411618
670,Belmopan,17.25203351,-88.767073,14300.5,Belize,2070.0,34.300479958191424,5.571111820230171
671,Lokossa,6.615000092000001,1.7150044569999998,86971.0,Benin,32.0,148.9645925300527,4.122590648356369
672,Kandi,11.13036582,2.940016641,73483.0,Benin,330.0,104.92425790170077,4.256758724463337
673,Ouidah,6.360372741,2.089991006,83503.0,Benin,47.0,115.14864921995256,4.430557455407396
674,Abomey,7.190399596000001,1.98999711,82154.0,Benin,32.0,503.04340812848284,2.2822650242160107
675,Natitingou,10.32041526,1.389982054,65356.5,Benin,5.0,500.0021283680831,2.728006779766998
676,Djougou,9.700427265,1.680041869,152708.5,Benin,3070.0,247.7752683264221,2.7678311780560123
677,Parakou,9.340009988,2.620036172,176303.0,Benin,368.0,102.74708130597918,4.33116480377434
678,Porto-Novo,6.483310972999999,2.616625528,267084.0,Benin,420.0,425.3592977776191,2.201797168651032
679,Cotonou,6.400008564,2.519990599,726292.0,Benin,420.0,386.76624531193653,2.404298894101472
680,Hamilton,32.29419029,-64.78393742,32910.0,Bermuda,3080.0,519.9448877813602,1.542049747366089
681,Paro,27.3833011,89.51670065,15000.0,Bhutan,4070.0,209.09067411927276,2.833144280874117
682,Punakha,27.63330305,89.83330266,5000.0,Bhutan,200.0,646.3064400390714,1.3754515742517206
683,Wangdue Prodrang,27.43329603,89.91669667,5000.0,Bhutan,670.0,625.9714140340379,1.2687103122459533
684,Thimphu,27.47298586,89.63901404,88930.5,Bhutan,2798.0,374.1058194942428,2.1189402337539294
685,Punata,-17.55000242,-65.83997115,20758.5,Bolivia,3970.0,311.2561951581573,2.260379880201681
686,Cliza,-17.58999998,-65.9299915,12235.0,Bolivia,2420.0,117.7898715103716,3.7275436889667435
687,Quillacollo,-17.39998574,-66.27999597,227052.0,Bolivia,165.0,258.23424433797175,3.0728116517669823
688,Puerto Villarroel,-16.87004393,-64.78001001,1778.0,Bolivia,35.0,219.54586344352813,3.2030281299556562
689,Tarabuco,-19.18003213,-64.91994979,2364.0,Bolivia,49.0,302.5836841860889,2.682571225062975
690,Guayaramerin,-10.82999917,-65.4099974,36008.0,Bolivia,12470.0,86.46147422664457,4.1260064664073015
691,Santa Ana,-13.7600012,-65.57996118,234478.0,Bolivia,223.0,262.89179124108574,3.0047668982207467
692,Baures,-13.58001219,-63.58005742,2422.0,Bolivia,1880.0,204.55514612142466,2.7804638697892687
693,Sica Sica,-17.33001585,-67.72998499,1006.0,Bolivia,470.0,127.8688280274767,3.5494386997270193
694,Rurrenabaque,-14.46001015,-67.55999536,11749.0,Bolivia,820.0,362.7180297117686,2.1445503055984854
695,Sorata,-15.79000649,-68.66005742,2190.0,Bolivia,235.0,713.9354432109931,1.1245283039431242
696,Achacachi,-16.08332192,-68.66656865,8447.0,Bolivia,2970.0,859.6486365014696,0.676615040033542
697,Viacha,-16.65000568,-68.2999502,34776.0,Bolivia,94.0,543.5721837784383,1.9086103732535256
698,Quime,-16.98001137,-67.22001612,3224.5,Bolivia,3810.0,437.3692202015034,1.5919730328762642
699,Llallagua,-18.42002684,-66.63999984,28069.0,Bolivia,3370.0,298.6002702116309,2.361007662706214
700,Uncia,-18.46999795,-66.57002995,4723.0,Bolivia,3190.0,272.7100873374009,2.3578019016671914
701,Uyuni,-20.46000568,-66.82998824,11616.0,Bolivia,28.0,146.010233089042,4.032006169128831
703,Betanzos,-19.55995726,-65.45002079,4629.5,Bolivia,313.0,604.8152049794502,1.4080121864344248
704,Portachuelo,-17.36003986,-63.40001673,9982.0,Bolivia,9.0,150.96616498372677,4.235290327777736
705,Samaipata,-18.18004148,-63.77001998,2926.0,Bolivia,34.0,286.97888845059214,2.8536645979946056
707,San Carlos,-17.39998574,-63.72999658,5266.5,Bolivia,87.0,11.934151467021545,7.3474742082688795
708,San Lorenzo,-21.47994342,-64.77001062,3000.0,Bolivia,1170.0,726.2364903808276,0.9340925743016303
709,Entre Rios,-21.53001788,-64.18999435,2685.0,Bolivia,57.0,772.3850081446445,1.2481660992592793
710,Aiquile,-18.18954995,-65.18001144,5844.0,Bolivia,1070.0,408.04679587048975,1.8780205275470536
711,Padilla,-19.29961139,-64.30996118,2276.5,Bolivia,122.0,505.0296319534096,1.7489283347254134
712,Camargo,-20.63958128,-65.20998377,4715.0,Bolivia,16.0,210.23784032657318,3.5306271082799965
713,Reyes,-14.30958006,-67.37000696,7376.0,Bolivia,7370.0,113.52582795078338,3.639121010377367
714,San Borja,-14.81962645,-66.84996118,19640.0,Bolivia,11.0,732.7456882576,1.8514081304738106
715,Magdalena,-13.260083400000001,-64.05276758,3445.0,Bolivia,8.0,426.13476191495005,2.6075866505336798
716,San Ramon,-13.28959064,-64.70998845,5439.5,Bolivia,99.0,317.9293116717652,2.563412885917114
719,Puerto Acosta,-15.49958494,-69.16666732,1123.0,Bolivia,18.0,241.7183120138433,3.151885074986025
720,Apolo,-14.71958087,-68.41999455,4189.0,Bolivia,15.0,211.70199911791914,3.5246562200277007
721,Coroico,-16.18962034,-67.72001144,2361.0,Bolivia,10.0,574.0583740972847,2.0622244579273676
722,Coro Coro,-17.1696122,-68.44996688,1884.0,Bolivia,53.0,236.42773433172985,3.0179947654452723
724,Challapata,-18.89958413,-66.77999129,8565.0,Bolivia,25.0,611.0997205626791,1.869355147903063
726,Potosi,-19.56956907,-65.75002832,160576.0,Bolivia,8.0,569.5281698215293,2.4620440763071585
727,Villazon,-22.07959674,-65.5999858,33734.0,Bolivia,640.0,174.1942588737076,3.3606007531713242
728,Tupiza,-21.43958413,-65.72000431,25499.5,Bolivia,185.0,384.9419934904488,2.304513867023894
729,Montero,-17.34960122,-63.26002527,83821.0,Bolivia,140.0,116.67466024773876,4.227352253870179
731,Robore,-18.3295414,-59.75998051,9959.0,Bolivia,1720.0,416.8679082933335,1.841018575544191
732,Puerto Quijarro,-17.77960081,-57.77002446,10392.0,Bolivia,208.0,397.4254299868927,2.16912423963163
733,San Ignacio,-16.36960936,-60.96001062,24480.0,Bolivia,4140.0,569.1294005194696,1.3556741320740209
734,Ascension,-15.69957273,-63.07998458,12085.0,Bolivia,5.0,183.01386172683996,4.120453961896062
735,San Javier,-16.28961424,-62.50001998,4210.0,Bolivia,92.0,130.17963665237465,3.8966414194198724
736,San Rafael,-16.77950682,-60.6799502,1201.0,Bolivia,4.0,317.23548711816665,3.1394565489815274
737,Vallegrande,-18.48958331,-64.10999923,6857.5,Bolivia,8220.0,459.218600368144,1.518262509781444
738,Puerto Suarez,-18.94955524,-57.8499679,17273.0,Bolivia,107.0,772.7342625206087,1.301757957543853
739,Charagua,-19.79958087,-63.2199502,3025.0,Bolivia,129.0,609.5299468072374,1.4827631287601244
740,Villamontes,-21.24956989,-63.50001062,18761.0,Bolivia,60.0,546.3817908036013,1.9311118049749583
741,Bermejo,-22.72958291,-64.34998458,36544.0,Bolivia,41.0,208.02026644248593,3.5111679775626348
742,Cochabamba,-17.41001097,-66.16997685,804138.0,Bolivia,165.0,293.91679086318675,2.9516211269137567
743,Oruro,-17.97995034,-67.12999577,227592.5,Bolivia,99.0,327.21102353512833,2.794038166559152
744,Camiri,-20.05000486,-63.51998356,19212.5,Bolivia,20.0,139.99691959590706,4.20760115258646
745,Cobija,-11.03334593,-68.73330876,35511.0,Bolivia,2980.0,132.11388536171287,3.617280782064893
746,San Matias,-16.35999754,-58.42001062,6352.0,Bolivia,7.0,350.9765854632909,2.9918215107685775
747,San José,-17.85003579,-60.77999577,9211.0,Bolivia,767.0,305.98810188135366,2.3892457515911296
748,Trinidad,-14.83337238,-64.89997685,69333.5,Bolivia,7.0,164.97785048187282,4.313686530918371
749,Tarija,-21.51668537,-64.74998599999999,155513.0,Bolivia,1170.0,682.8924270584554,1.3321714224156942
750,Sucre,-19.04097085,-65.25951563,223287.0,Bolivia,60.0,566.1167452513415,2.0480512165838176
751,Riberalta,-10.98301308,-66.10000696,74014.0,Bolivia,5470.0,53.5966223392817,4.952338080440505
752,La Paz,-16.49797361,-68.14998519,1201399.5,Bolivia,5270.0,373.6938491666933,2.218736977460504
753,Santa Cruz,-17.75391762,-63.22599634,1859530.5,Bolivia,330.0,200.44910016258493,3.4785944026112174
754,Zenica,44.21997398,17.91998083,151388.0,Bosnia and Herzegovina,36.0,574.3023818082305,2.097926246522082
755,Mostar,43.35049217,17.82003861,133792.5,Bosnia and Herzegovina,12.0,379.8089925573062,2.960146633551842
756,Tuzla,44.5504706,18.6800378,143410.0,Bosnia and Herzegovina,2820.0,717.3428650865427,1.1632414130708435
757,Prijedor,44.98039268,16.70000362,70602.5,Bosnia and Herzegovina,159.0,123.0920606917382,4.116634168533433
758,Banja Luka,44.78040489,17.17997432,221422.0,Bosnia and Herzegovina,4070.0,601.7896256012908,1.4225627412409378
759,Sarajevo,43.8500224,18.38300167,662816.5,Bosnia and Herzegovina,3.0,1103.6557596461084,1.8158411120162892
760,Mochudi,-24.377004,26.15200256,39700.0,Botswana,1620.0,442.74067464355215,1.8623994355898636
761,Ghanzi,-21.69961994,21.63996049,6306.0,Botswana,3.0,236.53412968389637,3.823891200578237
762,Lokhwabe,-24.16959837,21.83002641,1473.0,Botswana,36.0,433.8059629436691,2.149174952598621
763,Lehututu,-23.96961058,21.87002397,1942.0,Botswana,185.0,209.82078869551415,2.998347712731694
764,Tshabong,-26.00948606,22.40001745,9679.0,Botswana,313.0,600.9275668653397,1.4814644915040847
765,Tsau,-20.15961058,22.45996212,1409.0,Botswana,6.0,341.4834821784165,2.9318039875649164
766,Nokaneng,-19.66961465,22.26999955,1763.0,Botswana,10.0,746.5495195609775,1.6347725791313357
768,Maun,-19.98959511,23.42000688,47059.0,Botswana,820.0,411.7067751007036,2.0578663427819968
769,Kasane,-17.80957314,25.15003048,7774.5,Botswana,5870.0,428.4204266374604,1.6630268709600964
770,Nata,-20.20947833,26.19001868,2492.5,Botswana,7570.0,119.96462902838843,3.4556305676470522
771,Mopipi,-21.17954832,24.88002112,3301.0,Botswana,740.0,522.40815942756,1.4933252647231479
772,Palapye,-22.55961912,27.13001298,27179.0,Botswana,200.0,359.5900877944813,2.4011990892928874
773,Lobatse,-25.219611800000003,25.68002397,50343.5,Botswana,10320.0,135.56624126197892,3.4938366978682573
774,Kanye,-24.96960122,25.33999304,45773.5,Botswana,2720.0,572.0424144876775,1.4329520142794305
775,Molepolole,-24.399971899999997,25.510008499999998,57713.0,Botswana,59.0,920.1376470264728,1.2259462639205179
776,Francistown,-21.17003986,27.50001623,89179.5,Botswana,97.0,943.5108504656871,1.1328006495492466
777,Mahalapye,-23.09999957,26.82000606,47607.5,Botswana,7070.0,265.30695545229673,2.511417861790447
778,Serowe,-22.39001707,26.71003861,47996.0,Botswana,23.0,296.4106206856411,3.1148399872333843
779,Gaborone,-24.64631346,25.91194779,183827.0,Botswana,35.0,737.0543642524851,1.737518647304041
780,Grajau,-5.809995505,-46.14998438,30217.0,Brazil,8670.0,508.31020306978195,1.4779555599172898
781,Presidente Dutra,-5.250029685,-44.51998051,30330.0,Brazil,3.0,136.36601789604822,4.777651605102737
782,Itapecuru Mirim,-3.4000134089999996,-44.36001611,22347.0,Brazil,42.0,407.35297989236597,2.455144529846321
783,Sao Jose de Ribamar,-2.549987774,-44.06998214,41521.0,Brazil,16.0,747.3222447471194,1.786211344257869
784,Santa Ines,-3.659997539,-45.39003076,58511.5,Brazil,50.0,391.7974694062242,2.550991770562374
785,Rosario,-2.940041485,-44.26002222,6798.0,Brazil,8070.0,578.2856248972872,1.169819626987987
786,Timon,-5.114999167,-42.84496647,203157.0,Brazil,35.0,352.476143841493,2.8611367914143737
787,Capanema,-1.190019105,-47.17999903,45831.0,Brazil,3.0,615.5686515927439,2.532541354689885
788,Portel,-1.9499727180000002,-50.81998356,10855.0,Brazil,3070.0,231.83504307442396,2.677740895561089
789,Itupiranga,-5.1200117810000005,-49.30002466,21301.0,Brazil,206.0,659.0061390663991,1.4612301370206418
790,Pimenta Bueno,-11.64002724,-61.20999536,25762.0,Brazil,4480.0,284.6962859572016,2.400454530136115
791,Ponta Pora,-22.53000853,-55.7299681,75047.0,Brazil,9.0,35.1973217644541,6.536271264780781
792,Maracaju,-21.610013000000002,-55.18002751,18156.0,Brazil,1630.0,243.73410691070953,2.705605149359912
793,Jardim,-21.47994342,-56.15001998,21252.5,Brazil,5.0,170.990948166192,4.266979603755922
794,Tres Lagoas,-20.79001137,-51.72000615,64217.5,Brazil,53.0,243.33231827346177,3.266365757155564
795,Guanhaes,-18.78000486,-42.95002466,16761.5,Brazil,5.0,617.6417041746735,2.308265219252544
796,Leopoldina,-21.53001788,-42.64004358,37412.0,Brazil,2820.0,313.80513341102323,2.323854732457317
797,Nova Lima,-19.98003497,-43.850021399999996,60413.5,Brazil,1760.0,179.36076395959813,3.2476509235384645
798,Pouso Alegre,-22.22000161,-45.94002303,102517.5,Brazil,4.0,524.4015474900889,2.7488491583073222
799,Itauna,-20.06003009,-44.57002914,70233.0,Brazil,20.0,248.0954735063662,3.440660214225313
800,Caratinga,-19.79002073,-42.13999658,47517.5,Brazil,69.0,687.4864101441619,1.6269362524302287
801,Diamantina,-18.23998615,-43.60998438,25184.5,Brazil,59.0,449.6763079132232,2.251575024733133
802,Nanuque,-17.83995888,-40.35002832,27210.5,Brazil,87.0,385.6143573124419,2.4231217714231477
803,Barbacena,-21.22001097,-43.77000045,101628.5,Brazil,8.0,611.8872665384399,2.3237244004067654
804,Pocos de Caldas,-21.78002846,-46.56998458,125498.5,Brazil,10320.0,741.425128986653,0.9896024495532116
805,Guaxupe,-21.29003253,-46.7099502,43379.5,Brazil,840.0,141.0543978040938,3.6643502479758068
806,Sao Joao del Rei,-21.1300423,-44.24999699,68731.5,Brazil,740.0,392.86888398973787,2.1667407513742765
807,Muriae,-21.1300423,-42.38998132,76728.5,Brazil,2070.0,429.57746862870107,1.9292103406714114
808,Passos,-20.71001626,-46.60998214,85136.5,Brazil,2770.0,10.131558085315849,7.339479463495282
809,Conselheiro Lafaiete,-20.6700187,-43.78999923,102926.0,Brazil,520.0,288.1436543944528,2.7040705719863083
810,Formiga,-20.46000568,-45.43002832,46076.5,Brazil,137.0,105.77146138610912,4.335965553135594
811,Frutal,-20.03000608,-48.94002079,26797.0,Brazil,1150.0,440.8327624320028,1.8762176184013892
812,Iturama,-19.72997272,-50.2000214,21048.5,Brazil,83.0,685.7859815993737,1.5394649367740765
813,Ituiutaba,-18.97001911,-49.45998906,63978.0,Brazil,7330.0,403.5398581869977,1.8950114313078932
814,Araguari,-18.64001341,-48.19998845,79910.5,Brazil,72.0,537.2774422854786,2.029117924715964
815,Almenara,-16.17003497,-40.70000696,22173.5,Brazil,60.0,707.4589541434464,1.5522659057134602
816,Varzea Grande,-15.65001504,-56.14002059,242088.0,Brazil,35.0,764.7017904646796,1.6987419287405614
817,Cáceres,-16.0500423,-57.51001449,85274.0,Brazil,2430.0,173.8658340984642,3.2857819828723054
818,Santana do Livramento,-30.88004148,-55.53000615,87312.0,Brazil,35.0,976.2071600872678,1.2629669258603258
819,Canoas,-29.91999673,-51.17998743,466661.0,Brazil,4.0,181.97105894072786,4.441481348066008
820,Quarai,-30.38002033,-56.45994938,18462.0,Brazil,2070.0,460.74995366050587,1.720185578723901
821,Santa Vitoria do Palmar,-33.52003538,-53.36998295,21826.0,Brazil,52.0,268.43963407002985,3.043687004588791
822,Sao Lourenco do Sul,-31.36998574,-51.98001611,21673.0,Brazil,3920.0,277.75222671004565,2.4368609039654547
823,Canela,-29.36003091,-50.81001001,47167.0,Brazil,86.0,149.10342324652308,3.8975899504713625
824,Sao Gabriel,-30.32002399,-54.32002832,41849.5,Brazil,1070.0,249.39370486391596,2.7775882998393837
825,Rosario do Sul,-30.25000242,-54.92001754,28596.5,Brazil,8570.0,614.5144375844741,1.1873299308091694
826,Cachoeira do Sul,-30.02996417,-52.90998519,61871.0,Brazil,5570.0,236.63716660870273,2.7229660858723794
827,Osorio,-29.87999917,-50.26999129,30882.0,Brazil,100.0,69.7731245525421,4.974552556582927
828,Santa Cruz do Sul,-29.71003538,-52.44003972,109869.0,Brazil,2070.0,334.7440425953014,2.3304456448247968
829,Sao Luiz Gonzaga,-28.41001137,-54.95998926,27798.5,Brazil,12.0,420.1027704335981,2.698949807399303
830,Santo Angelo,-28.30004393,-54.28003076,65013.0,Brazil,111.0,408.5444548488817,2.358547109890283
831,Carazinho,-28.290018699999997,-52.80004358,49145.0,Brazil,220.0,497.32741561990747,1.9398357783438027
832,Erechim,-27.63000731,-52.26999841,85365.5,Brazil,5.0,505.1387109670416,2.730624032161654
833,Guaira,-24.08996499,-54.2699797,28897.5,Brazil,767.0,499.3488157889195,1.7379755887415547
834,Palmas,-26.47999998,-51.99998906,29794.5,Brazil,135.0,246.38653905352697,3.0368663299909504
835,Arapongas,-23.41000649,-51.43004968,91203.5,Brazil,46.0,201.73736392145423,3.5989044785660385
836,Paranagua,-25.52787556,-48.53445345,135071.0,Brazil,960.0,599.4318386518291,1.5423284933963628
837,Sao Jose dos Pinhais,-25.57002968,-49.18000615,472180.0,Brazil,25.0,698.3887250257098,1.9456524015275982
838,Guarapuava,-25.38001544,-51.48002079,123381.5,Brazil,5010.0,908.741455110469,0.7416841140910906
839,Rio Negro,-26.10002317,-49.79002059,44301.5,Brazil,6570.0,361.048116433694,2.0470646515445163
840,Apucarana,-23.54999795,-51.4700214,102577.0,Brazil,200.0,26.215794512530533,6.373160156475452
841,Lapa,-25.76004393,-49.72999841,19934.5,Brazil,28.0,640.5171734533545,1.8419619629710657
842,Irati,-25.47003579,-50.65996749,41602.0,Brazil,185.0,274.016486032278,2.8540825470824305
843,Castro,-24.79002562,-50.00998132,38417.5,Brazil,7080.0,621.472118671956,1.2080346897050627
844,Telemaco Borba,-24.32995034,-50.61999577,53793.5,Brazil,2340.0,366.4121100651346,2.1333739466721164
845,Jacarezinho,-23.15994424,-49.97998316,33551.0,Brazil,180.0,197.2861676186127,3.3378491648450908
846,Concordia,-27.23003172,-52.03001306,46124.5,Brazil,320.0,373.88003862287513,2.316634061565503
847,Blumenau,-26.920024800000004,-49.089985799999994,286326.0,Brazil,21.0,89.41340041376017,5.050592594519043
848,Brusque,-27.12998615,-48.9300214,81163.5,Brazil,820.0,565.0302592584372,1.6160054315578514
849,Ararangua,-28.94000486,-49.49998661,42198.5,Brazil,1070.0,271.7114761583611,2.6488315875069963
850,Jaragua do Sul,-26.47999998,-49.09998519,128803.5,Brazil,7570.0,155.2562742719801,3.379596530975134
851,Tubarao,-28.48003294,-49.02001591,79760.0,Brazil,440.0,275.25144133741736,2.776693884496764
852,Laguna,-28.48003294,-48.77997888,32532.0,Brazil,3.0,264.79695675029006,3.7842682874019093
853,Joacaba,-27.17003538,-51.4999679,31196.0,Brazil,29.0,155.86349711537252,4.002983543994167
854,Cacador,-26.77000812,-51.02002303,57155.5,Brazil,6.0,62.853159885171294,5.7805564253926915
855,Canoinhas,-26.17996662,-50.4000092,40180.0,Brazil,2320.0,352.8065577729525,2.1707963152080696
856,Camocim,-2.89999225,-40.85002364,27794.5,Brazil,530.0,492.41534348344896,1.7996433977631816
857,Russas,-4.940022767,-37.97999211,33613.5,Brazil,6060.0,159.3850821756376,3.2671750416248178
858,Sobral,-3.6900215469999997,-40.35002832,148439.5,Brazil,143.0,1015.5236888617892,0.9937605677195364
859,Iguatu,-6.3599877739999995,-39.29998906,56638.0,Brazil,12.0,377.6677492859457,2.911206553093479
860,Quixada,-4.969995098,-39.02000615,30723.5,Brazil,30.0,250.83973821556327,3.2785323121911043
861,Caninde,-4.35003294,-39.30998845,32085.0,Brazil,1070.0,557.8139227422835,1.54084208159105
862,Campo Maior,-4.8200300910000005,-42.18001998,24089.5,Brazil,8.0,146.93348560848426,4.376227054588512
863,Barras,-4.250039043,-42.29998682,11951.5,Brazil,7070.0,266.1681167168051,2.4021070001167324
864,Rio Largo,-9.48000405,-35.83996769,110966.0,Brazil,107.0,226.4001978987395,3.2919604330277172
865,Palmeira dos Indios,-9.416597067,-36.61663863,41095.0,Brazil,6570.0,361.2799656273427,2.040735317465154
866,Santa Cruz Cabralia,-16.28000242,-39.029979700000005,9980.5,Brazil,37.0,97.03731157736411,4.574107090735831
867,Paulo Afonso,-9.330659161,-38.26565943,85350.0,Brazil,1820.0,361.18069205436706,2.211695016663485
868,Brumado,-14.20999957,-41.67002527,29300.0,Brazil,25.0,192.91551773775134,3.7089487882231102
869,Jaguaquara,-13.5299894,-39.96999984,30554.5,Brazil,68.0,510.9433700392569,2.0474567364570224
870,Itapetinga,-15.24998777,-40.24998275,43224.0,Brazil,39.0,262.7718486630047,3.1805985243646475
871,Ubaitaba,-14.30001992,-39.33001306,27411.5,Brazil,9.0,512.9104430000236,2.468527938140325
872,Cachoeiro de Itapemirim,-20.85000771,-41.12998071,174808.5,Brazil,1820.0,325.0998540675559,2.4173792140241726
873,Barra Mansa,-22.56003253,-44.1699502,166719.0,Brazil,3.0,595.8156457061117,2.668367811143042
874,Nova Iguacu,-22.74002155,-43.46996708,844583.0,Brazil,1720.0,187.98764072870304,3.34263401291636
875,Duque de Caxias,-22.76999388,-43.30997685,842890.0,Brazil,3220.0,302.7972477235701,2.56227304252351
876,Niteroi,-22.90001178,-43.09998967,993920.0,Brazil,10.0,476.0200791276839,2.7834527691188224
877,Cabo Frio,-22.88998655,-42.03997685,184980.0,Brazil,59.0,547.9154325630228,2.08886412617988
878,Macae,-22.37999184,-41.78999211,133083.0,Brazil,3070.0,359.1885641292948,2.1980907159489624
879,Miracema,-21.41002521,-42.19996708,22564.5,Brazil,51.0,175.8961642808509,3.68676859358286
880,Apodi,-5.650005271,-37.80000309,8586.0,Brazil,1730.0,491.78627479625493,1.5778365462158188
881,Santa Cruz,-6.219996319,-36.02998194,22003.5,Brazil,3270.0,824.6926354169898,0.8070281415784053
882,Morrinhos,-17.73004311,-49.10998458,27841.0,Brazil,2230.0,351.805368991763,2.152203781326183
883,Ceres,-15.30331785,-49.60519983,18658.5,Brazil,4810.0,249.46448300365796,2.5689238304055544
884,Catalao,-18.18004148,-47.9500037,53646.5,Brazil,470.0,381.66520575025993,2.247318399277742
885,Cristalina,-16.76999835,-47.61002446,25627.5,Brazil,1060.0,74.81094815568954,4.545899707657237
886,Trindade,-16.65000568,-49.49998661,93113.0,Brazil,94.0,360.153440767891,2.600222722305682
887,Ipora,-16.45001788,-51.12999048,23354.0,Brazil,790.0,515.4297655325223,1.670665026099978
888,Inhumas,-16.35999754,-49.49998661,36122.0,Brazil,1070.0,332.7375678762235,2.331556034157421
889,Itaberai,-16.01996662,-49.80996769,18710.5,Brazil,7570.0,694.7553002867506,0.9796438183489683
890,Santo Andre,-23.65283405,-46.52781661,662373.0,Brazil,53.0,265.72786052525475,3.278960461279795
891,Pindamonhangaba,-22.91995888,-45.47002588,123985.0,Brazil,4480.0,311.90562965645137,2.371938550893513
892,Rio Claro,-22.40996417,-47.56002751,177710.0,Brazil,5.0,620.465990461527,2.466587304695497
893,Ourinhos,-22.97003335,-49.86998987,96994.0,Brazil,9570.0,335.13534867220056,2.181578553904225
894,Itanhaem,-24.17998533,-46.80002222,82722.0,Brazil,9570.0,314.2125675741914,2.2684016720694666
895,Jaboticabal,-21.25003497,-48.32998051,60780.5,Brazil,8.0,260.20374779082687,3.582763430443486
896,Braganca Paulista,-22.95003457,-46.549985799999995,126386.0,Brazil,16.0,896.2049541940862,1.5862975158223505
897,Jundiai,-23.19999347,-46.879991499999996,413568.5,Brazil,48.0,33.255923803155966,6.353221023918944
898,Sao Jose dos Campos,-23.19999347,-45.87994918,695322.5,Brazil,35.0,263.19556308327026,3.375368263600857
899,Guaratingueta,-22.81996499,-45.18999129,154730.0,Brazil,99.0,342.80426851445645,2.699492487899985
900,Pirassununga,-21.99004148,-47.42998377,51698.0,Brazil,456.0,499.9032080199818,1.839917658104928
901,Americana,-22.74994342,-47.32998987,337747.0,Brazil,102.0,296.96883176665267,2.959725562951094
902,Piracicaba,-22.70999754,-47.63999679,329530.0,Brazil,2340.0,650.3204232330197,1.381529955429039
903,Sao Joao da Boa Vista,-21.98001626,-46.78999699,68666.0,Brazil,760.0,374.8847473134478,2.2345125197037548
904,Sao Carlos,-22.02001382,-47.88998153,175219.0,Brazil,109.0,824.3591265493793,1.3627147426165536
905,Tupa,-21.92999347,-50.519950200000004,51798.5,Brazil,5.0,521.6355283443348,2.647728604748729
906,Penapolis,-21.41002521,-50.08000289,44795.0,Brazil,5.0,741.6530670465047,2.1040232575741897
907,Presidente Prudente,-22.12000771,-51.39000045,199722.0,Brazil,43.0,592.841784768959,2.032688644951473
908,Registro,-24.49004393,-47.83998458,49485.0,Brazil,9500.0,303.54602407567296,2.2858848793158857
909,Tatui,-23.35001015,-47.8600092,81936.0,Brazil,310.0,31.187940929139348,6.051520539720925
910,Avare,-23.1100248,-48.9300214,70709.0,Brazil,6.0,206.8471361251768,4.016655833900627
911,Garca,-22.22000161,-49.65997685,38460.0,Brazil,4.0,624.8332950334407,2.41577110740696
912,Catanduva,-21.14001585,-48.97996668,105238.0,Brazil,10.0,154.33860275369216,4.348197862540721
913,Batatais,-20.89000527,-47.58999984,44061.0,Brazil,2570.0,187.0634910792432,3.124737072206154
914,Barretos,-20.55002602,-48.58001693,97562.0,Brazil,7370.0,339.5420115160593,2.184193781968009
915,Marilia,-22.21002806,-49.95001083,191083.5,Brazil,7570.0,357.35361205167345,2.147840274561421
916,Itu,-23.26004148,-47.30001754,228878.0,Brazil,7070.0,107.4239619085959,3.9732189265693862
917,Itapetininga,-23.58999551,-48.03999821,120889.0,Brazil,134.0,60.804047134685995,5.225959346211562
918,Jaboatao,-8.110010153,-35.02004358,681214.0,Brazil,74.0,217.04849090283733,3.526724222228546
919,Olinda,-7.999991028999999,-34.8499506,659554.0,Brazil,8.0,210.98982297148368,4.047894464183578
920,Cabo de Santo Agostinho,-8.289999167000001,-35.02999129,144662.0,Brazil,2570.0,174.8077953377642,3.306816691396013
921,Carpina,-7.840000795,-35.26000309,118134.0,Brazil,13.0,35.81882951758662,6.44870523132899
922,Arcoverde,-8.420017071,-37.06999597,53066.0,Brazil,24.0,43.96218503823021,5.957553052262594
923,Manacapuru,-3.2895808730000002,-60.6199797,55780.5,Brazil,36.0,901.6534536278543,1.3473823544459298
924,Maues,-3.3896264460000003,-57.72002751,27518.0,Brazil,103.0,408.4066026169546,2.309560659086334
925,Pedreiras,-4.569606101000001,-44.67002303,13638.0,Brazil,3620.0,245.82816202573056,2.592362345721097
926,Codo,-4.4795857560000005,-43.8799679,83288.0,Brazil,160.0,256.2161815491636,3.0246896656510867
927,Coroata,-4.12958128,-44.15000309,34129.0,Brazil,53.0,291.0453568620615,2.9513926945501647
928,Chapadinha,-3.739527569,-43.35999964,29807.5,Brazil,1070.0,784.2103214815355,1.0189363801620537
929,Pinheiro,-2.519602032,-45.0899974,24912.0,Brazil,2170.0,637.9991224860137,1.245188787412128
930,Barra do Corda,-5.5096004039999995,-45.25996118,48901.0,Brazil,15.0,217.04675149472027,3.683405200273845
931,Viana,-3.209585756,-45.00000289,15808.5,Brazil,47.0,168.28235005533716,3.7409911775367473
932,Colinas,-6.039542217,-44.2399976,13562.5,Brazil,151.0,173.52106196433925,3.4876223816981904
933,Viseu,-1.196478659,-46.14001083,9992.5,Brazil,55.0,240.2077101524462,3.1392162192947843
934,Capitao Poco,-1.74962319,-47.09000452,32704.0,Brazil,6.0,46.095341185807,6.195406122005571
935,Castanhal,-1.28959959,-47.93003076,125314.5,Brazil,6.0,306.20084993769035,3.4628434099149787
936,Salinopolis,-0.609486065,-47.33998926,32384.5,Brazil,16.0,395.6409094099534,2.7318344319932812
937,Alenquer,-1.939585756,-54.78999964,26290.0,Brazil,5.0,322.0625166793908,3.3284433543511676
938,Oriximina,-1.7595967419999998,-55.86998539,35300.0,Brazil,4.0,320.1046476107206,3.4221205620841557
939,Xinguara,-7.1006144010000005,-49.94804712,4047.0,Brazil,17.0,496.9873780154177,2.202598079128099
940,Jacundá,-4.599578431,-49.38996749,51375.0,Brazil,6910.0,329.1455220578232,2.1930480700856156
942,Altamira,-3.1996122039999997,-52.21000208,56769.0,Brazil,140.0,416.58609757341065,2.2838013692489962
943,Paragominas,-2.9595751760000004,-47.49000594,38095.5,Brazil,3.0,693.4560545195437,2.3386946118055536
944,Cameta,-2.239619121,-49.509986,22705.0,Brazil,68.0,89.73895618958775,4.642890032239294
945,Rolim de Moura,-11.73020262,-61.78063237,24516.0,Brazil,1070.0,526.5843153351124,1.6081624171614528
946,Ariquemes,-9.939614238999999,-63.07998458,58096.0,Brazil,3.0,507.04985825879686,2.8430427411629426
947,Abuna,-9.69539142,-65.35971623,1929.0,Brazil,9070.0,412.74477816310684,1.5537438582840895
948,Tocantinopolis,-6.3195768039999995,-47.41998438,8750.0,Brazil,5.0,490.0356793937131,2.6063608583472986
949,Gurupi,-11.71960895,-49.05998763,45595.5,Brazil,220.0,32.61523717912438,5.993485234089758
950,Aquidauana,-20.46961749,-55.79001611,38053.0,Brazil,18.0,69.70829235672889,5.3213574964302355
951,Paranaiba,-19.679588199999998,-51.20001205,25278.5,Brazil,97.0,617.8311507588791,1.6858752463814446
952,Sete Lagoas,-19.44962807,-44.24999699,195032.0,Brazil,246.0,631.2353110649971,1.6544099214279264
953,Divinopolis,-20.14953367,-44.89998316,181457.0,Brazil,24.0,339.69231697765315,2.9881184614998633
954,Ipatinga,-19.4796004,-42.51999923,318320.0,Brazil,69.0,655.0620410064538,1.823861115847845
955,Araxa,-19.5795943,-46.95001306,70159.5,Brazil,8.0,340.8948666331308,3.184573963904406
956,Lavras,-21.24956989,-45.009950599999996,70436.0,Brazil,196.0,190.4523442285433,3.4309763790191896
957,Uba,-21.11960366,-42.95002466,81698.5,Brazil,29.0,624.0156887595718,1.9755143141808273
958,Campo Belo,-20.88959186,-45.27998579999999,42042.5,Brazil,29.0,66.81583287097757,5.287307050426473
959,Ponte Nova,-20.40962116,-42.899950200000006,40377.0,Brazil,2570.0,50.016583444475316,5.08111560916459
960,Curvelo,-18.75959267,-44.429986,45937.0,Brazil,139.0,254.33802591617524,3.015810708655049
961,Paracatu,-17.19958453,-46.86999211,51673.5,Brazil,33.0,167.5899021861367,3.9038110526189542
962,Bocaiuva,-17.10961587,-43.81004968,22528.5,Brazil,2970.0,149.6282182460265,3.397173314109665
963,Aracuai,-16.85960529,-42.06994918,15301.5,Brazil,5.0,166.51660149621094,4.2813419965552555
964,Janauba,-15.79961831,-43.30997685,38641.0,Brazil,1580.0,644.8734122193563,1.2932499898348018
966,Barra do Garcas,-15.87961342,-52.25999903,41214.5,Brazil,4.0,652.6879869865443,2.354615468022556
967,Pontes e Lacerda,-15.21960203,-59.3499797,22694.5,Brazil,234.0,513.1117729895213,1.8275204211488938
968,Barra do Bugres,-15.06958535,-57.19000818,22386.0,Brazil,310.0,1034.2472783712,0.7255914878480058
969,Rondonopolis,-16.469499900000002,-54.63998295,146794.0,Brazil,15.0,88.95888438954113,5.093712347400354
970,Uruguaiana,-29.76961831,-57.08998845,97736.5,Brazil,25.0,174.26760508777255,3.9461016746403006
971,Sao Borja,-28.65960854,-56.00997685,48450.5,Brazil,2970.0,324.5093007469278,2.286666190047674
972,Novo Hamburgo,-29.70962197,-51.13998987,557017.0,Brazil,3620.0,182.36136311449184,3.292469914031041
973,Rio Grande,-32.04947915,-52.12000757,143150.0,Brazil,16.0,464.0870106989357,2.5919960990407644
974,Camaqua,-30.83963051,-51.81000065,45112.5,Brazil,5.0,200.4675776018194,4.083066723819557
975,Bento Goncalves,-29.1694999,-51.51996668,92561.5,Brazil,16.0,496.6234400707786,2.4609219134819775
976,Vacaria,-28.49961831,-50.94000208,47275.5,Brazil,12.0,279.87656372778054,3.3514817362226066
977,Ijui,-28.38954751,-53.91994938,59047.0,Brazil,368.0,267.89987043838215,2.8195582615904273
978,Santa Rosa,-27.86952757,-54.4599681,59119.0,Brazil,570.0,348.52976244865357,2.3680663238041797
979,Maringa,-23.4095414,-51.92996749,320029.5,Brazil,43.0,165.14018374616893,3.9920986942782846
980,Cascavel,-24.95957599,-53.46002914,229300.0,Brazil,2540.0,686.7465714176913,1.2688862930597893
981,Campo Murao,-24.04960569,-52.41998926,74173.0,Brazil,2462.0,89.019048195761,4.276783135845679
982,Foz do Iguacu,-25.52346922,-54.52998967,366989.0,Brazil,360.0,790.6234880052118,1.3010046259345194
983,Sao Francisco do Sul,-26.23960122,-48.59998987,24354.5,Brazil,53.0,501.4033055474004,2.103560808466581
984,Porto Uniao,-26.23960122,-51.07996769,50242.5,Brazil,8.0,13.311237646901251,7.889366496512699
985,Itajai,-26.89961261,-48.68001083,241421.0,Brazil,7370.0,326.7081296505803,2.30016338176804
986,Imbituba,-28.22960895,-48.66001205,28380.0,Brazil,482.0,427.13196310102103,2.02809501223388
987,Lajes,-27.80958291,-50.30998885,139972.0,Brazil,27.0,283.09793245733937,3.2219547455103186
988,Granja,-3.119513734,-40.83999841,17233.0,Brazil,212.0,140.78087800523755,3.771388302531525
989,Crato,-7.2295987760000004,-39.42000757,164149.5,Brazil,5.0,171.4778101859588,4.404601009816295
990,Itapipoca,-3.4995422169999997,-39.58002364,31041.0,Brazil,11470.0,873.8586440422193,0.6353165841056454
991,Paracuru,-3.399548321,-39.04003076,19860.0,Brazil,32.0,557.6291728698056,2.024245070330269
992,Acarau,-2.8896052869999997,-40.11999068,21024.5,Brazil,144.0,963.6875404830486,0.935906548460539
993,Taua,-5.9994929820000005,-40.31003076,29188.0,Brazil,29.0,705.6062616902645,1.7166527118418113
994,Crateus,-5.165590394,-40.66600387,40338.0,Brazil,679.0,141.39178673083035,3.679916176789817
995,Baturite,-4.329569073,-38.87998885,17797.5,Brazil,8570.0,274.31186239784734,2.3718666541483113
996,Ipu,-4.319595521,-40.72005742,14479.5,Brazil,8460.0,198.6300005995524,2.8435085265789684
997,Floriano,-6.769575176,-43.029968100000005,35923.0,Brazil,26.0,444.44506133681114,2.4551657850013995
998,Piripiri,-4.269572735,-41.78999211,32639.0,Brazil,4.0,119.589875479168,4.8979982686255354
999,Penedo,-10.26961994,-36.58002588,37515.5,Brazil,3080.0,305.6592299061628,2.355408090711552
1000,Itabuna,-14.78960244,-39.28001611,213799.0,Brazil,5.0,183.07529536605676,4.322737497560473
1001,Itamaraju,-17.0395943,-39.52994918,35055.0,Brazil,5370.0,375.3029370142133,1.989315626086553
1002,Guanambi,-14.22958494,-42.78998275,45730.0,Brazil,4320.0,99.53808173357459,4.024105088281212
1003,Porto Seguro,-16.42960569,-39.08002832,72031.0,Brazil,9.0,502.6336895888584,2.567877416375576
1004,Valenca,-13.3596122,-39.08002832,56584.5,Brazil,10420.0,563.8500345139009,1.3504680338370023
1005,Serrinha,-11.64958738,-39.01000676,52953.5,Brazil,77.0,630.0203054838311,1.7480824536487312
1006,Tucano,-10.96962889,-38.78999435,16199.0,Brazil,670.0,58.659199708396464,4.921423228863202
1007,Senhor do Bonfim,-10.44960895,-40.19001225,43577.0,Brazil,134.0,776.56274775296,1.3281063403103806
1008,Remanso,-9.599583314,-42.10999841,37945.0,Brazil,3.0,130.04736995528077,4.865063367248817
1009,Itambe,-15.23960081,-40.62998539,15450.5,Brazil,41.0,197.03345352961782,3.527880542163824
1010,Bom Jesus da Lapa,-13.249541399999998,-43.44002059,40691.0,Brazil,28.0,301.9355094224898,3.0333093649330194
1011,Itaberaba,-12.5196118,-40.2999797,31722.0,Brazil,235.0,140.56961042297843,3.805442742286209
1012,Sao Mateus,-18.72962034,-39.85998071,63375.5,Brazil,1134.0,454.3472032136601,1.8936358131297284
1013,Patos,-7.019585756000001,-37.29000838,85720.5,Brazil,840.0,106.43131167290316,4.132791647608827
1014,Volta Redonda,-22.51956989,-44.09496769,352971.0,Brazil,1720.0,480.49756664819205,1.8749933478813325
1015,Petropolis,-22.50949298,-43.19998356,279381.0,Brazil,9.0,263.2449355007071,3.632998838124846
1016,Nova Cruz,-6.469593487000001,-35.43999211,22563.5,Brazil,37.0,288.12123294459735,3.004086489959237
1017,Caico,-6.459619935,-37.10001998,42378.0,Brazil,10320.0,554.6831166077388,1.3557424632876776
1018,Acu,-5.57962197,-36.91005742,33303.0,Brazil,7270.0,437.550697484269,1.7270008748839971
1019,Estancia,-11.26961058,-37.45002446,50690.0,Brazil,97.0,94.05736740631241,4.57186531940485
1020,Caracarai,1.816231505,-61.12767481,11368.0,Brazil,30.0,144.78143346010043,4.028636290509266
1021,Porto Santana,-0.039598369,-51.17998743,68849.0,Brazil,111.0,297.9974610008483,2.8395582183008066
1022,Rio Verde,-17.81959837,-50.92997685,48318.0,Brazil,50.0,428.54630688607944,2.401933167521983
1023,Pires do Rio,-17.29952675,-48.27998356,21688.0,Brazil,670.0,24.279936370748725,6.21606514348767
1024,Anapolis,-16.31958657,-48.9599679,278595.5,Brazil,210.0,371.7032828969763,2.500330721831862
1025,Goianesia,-15.30962238,-49.1300092,39217.5,Brazil,44.0,441.29069528177115,2.366682591130016
1026,Niquelandia,-14.46962197,-48.47002364,19785.0,Brazil,5.0,83.21793607558939,5.338262409468255
1027,Itumbiara,-18.39961465,-49.21000431,65343.5,Brazil,106.0,689.3259646775567,1.5736835211484148
1028,Jatai,-17.87959471,-51.75000431,57135.0,Brazil,9570.0,343.55397399396236,2.1081896718667426
1029,Mineiros,-17.56953611,-52.55998071,28247.0,Brazil,270.0,37.48094043430953,5.730681526079858
1030,Formosa,-15.53947915,-47.33998926,62585.5,Brazil,530.0,1167.773584408248,0.5479954326019516
1031,Sao Jose do Rio Preto,-20.79962319,-49.38996749,358243.5,Brazil,55.0,335.1856224321843,2.885731005032734
1032,Limeira,-22.54954222,-47.40001144,241071.0,Brazil,5.0,644.2144977650331,2.4285892155997164
1033,Taubate,-23.01953937,-45.55999455,327600.5,Brazil,240.0,143.30955091128257,3.9280688531277552
1034,Jau,-22.28960976,-48.57001754,102565.5,Brazil,64.0,288.3346050108595,3.0079014450600297
1035,Assis,-22.65961302,-50.41998214,79133.0,Brazil,9070.0,343.1309852076671,2.136797233039969
1036,Itapeva,-23.97958413,-48.88002446,55324.0,Brazil,1070.0,208.63860182634798,3.066267037697256
1037,Botucatu,-22.87959959,-48.44999903,94938.5,Brazil,2798.0,540.2488967288407,1.5669012835192044
1038,Novo Horizonte,-21.45958291,-49.2200037,29554.0,Brazil,2570.0,373.3651151440686,2.0528132859154407
1039,Andradina,-20.90959064,-51.37994938,45715.0,Brazil,132.0,201.09342659550282,3.377419379348749
1040,Fernandopolis,-20.2696297,-50.26004358,55587.0,Brazil,6.0,197.60696642421698,4.068910837100442
1041,Barreiros,-8.829604473,-35.20000676,35472.5,Brazil,52.0,489.05932040351166,2.1726000631504148
1042,Salgueiro,-8.059625632000001,-39.13002527,31565.0,Brazil,210.0,408.4244108263189,2.212714130980696
1043,Goiana,-7.559604472999999,-34.99999312,57764.5,Brazil,4.0,64.3422120045864,5.859992633990559
1044,Timbauba,-7.499608135,-35.32002527,51327.5,Brazil,33.0,569.8703922164723,2.0547734707148004
1045,Bacabal,-4.229988588,-44.79998926,57296.5,Brazil,1070.0,242.15556022309778,2.844139600070056
1046,Braganca,-1.05002765,-46.76999821,56864.5,Brazil,4870.0,153.2751058794152,3.3826103193467825
1047,Obidos,-1.910026836,-55.52000676,26278.5,Brazil,55.0,133.9908791895193,4.092933496673851
1048,Guajara-Miram,-10.80002684,-65.34994938,51852.5,Brazil,1810.0,93.87514505151212,4.203597004677936
1049,Porto Nacional,-10.70003294,-48.41994918,9129.0,Brazil,30.0,355.7387948339693,2.655756608330711
1050,Dourados,-22.23002684,-54.80999841,144743.5,Brazil,3.0,374.92613488399013,3.360815899472257
1051,Governador Valadares,-18.87002521,-41.97000696,201317.0,Brazil,24.0,318.11894534547355,3.0937958710887195
1052,Pirapora,-17.33001585,-44.92998132,55910.0,Brazil,566.0,138.46798388030368,3.7557475330786554
1053,Juiz de Fora,-21.77000324,-43.3749858,464764.5,Brazil,60.0,1050.604057569946,1.154149238842017
1054,Santa Maria,-29.68331867,-53.80000838,239211.5,Brazil,30.0,288.28293839340813,3.20626931487534
1055,Passo Fundo,-28.25002114,-52.41998926,164047.0,Brazil,7.0,102.3948764840963,5.084562939807247
1056,Xapeco,-27.10001382,-52.64002751,154794.0,Brazil,1460.0,189.5702990066621,3.245949355798357
1057,Joinville,-26.31995807,-48.83994938,710737.5,Brazil,4.0,370.72672082609466,3.3918207093511468
1058,Juazeiro do Norte,-7.210013409,-39.32001367,222861.0,Brazil,5.0,496.31318459697576,2.8190126063359386
1059,Nova Vicosa,-17.88000812,-39.37001062,30250.0,Brazil,6966.0,246.9843734830113,2.58796994790227
1060,Alagoinhas,-12.13999673,-38.42999048,123379.0,Brazil,117.0,118.32773619285688,4.25941918878908
1061,Juazeiro,-9.420007712,-40.49996749,95132.0,Brazil,760.0,406.70750612661317,2.1331753863938974
1062,Vitória,-20.32399331,-40.36599634,1008328.0,Brazil,2570.0,76.50908143729872,4.656558249186428
1063,Joao Pessoa,-7.10113513,-34.87607117,803441.5,Brazil,740.0,271.0869570882893,2.879223586742518
1064,Campina Grande,-7.230012188,-35.88001693,383098.5,Brazil,69.0,593.2506169070178,1.9851448465142203
1065,Nova Friburgo,-22.25999917,-42.54004968,162676.0,Brazil,1100.0,570.3921137004061,1.6145733853995645
1066,Aracatuba,-21.20998574,-50.45000615,166305.0,Brazil,128.0,453.78746229262197,2.2392021287656854
1067,Sena Madureira,-9.070003236,-68.66997929,23354.0,Brazil,219.0,848.2363090768481,1.0767683269659278
1068,Fonte Boa,-2.5138142709999998,-66.09160954,13974.5,Brazil,246.0,536.7718533604896,1.714678579832319
1069,Eirunepe,-6.66002114,-69.87380762,19462.5,Brazil,97.0,628.7492194160471,1.639453369232034
1070,Manicore,-5.812165915,-61.29748356,17802.0,Brazil,12.0,639.9320701287278,2.0275253652301473
1071,Barcelos,-0.97499347,-62.92389592,9968.5,Brazil,146.0,415.0432367599453,2.1515151537190276
1072,Tonantins,-2.8727070930000003,-67.80189274,2722.0,Brazil,1330.0,134.83076695254013,3.453743131327892
1073,Tefe,-3.36001585,-64.69998906,48189.5,Brazil,4.0,287.7128030549034,3.605575146048032
1074,Coari,-4.079971905,-63.12998153,51897.5,Brazil,36.0,370.71018393223835,2.689227117324451
1075,Sao Cabriel da Cachoeira,-0.133236065,-67.08330611,15231.0,Brazil,24.0,531.1456114373069,2.1374718363545195
1076,Novo Airao,-2.620784486,-60.94378422,9049.0,Brazil,51.0,716.9723076236979,1.4901309290523146
1077,Itacoatiara,-3.140029278,-58.43998356,51509.0,Brazil,140.0,194.93735804990402,3.4236895310442135
1078,Parintins,-2.6100357880000002,-56.74000981,64428.0,Brazil,16.0,171.57278032914627,4.041262222719265
1079,Natal,-6.983825663999999,-60.26994938,980588.0,Brazil,160.0,1017.9903857088813,1.0852300865452942
1080,Crato,-7.46389972,-63.03996118,164149.5,Brazil,380.0,502.7226686363099,1.9311775411035539
1081,Imperatriz,-5.520039043,-47.49000594,203339.5,Brazil,18.0,593.7649085732569,2.2136115025291874
1082,Balsas,-7.520020326,-46.04999048,39761.5,Brazil,55.0,228.11880510370725,3.323315293115525
1083,Breves,-1.680015036,-50.4900037,46818.5,Brazil,1470.0,38.06958224363782,5.544553619350877
1084,Jacareacanga,-6.266608461000001,-57.65000594,31661.0,Brazil,41.0,864.4597091993439,1.3454326107136756
1085,Tucurui,-3.679996319,-49.71999903,38472.0,Brazil,2970.0,934.973725969813,0.6670226990889325
1086,Itaituba,-4.258617331,-55.92502079,78532.0,Brazil,83.0,220.09504305492143,3.352978921296265
1087,Conceicao do Araguaia,-8.250001608,-49.29002527,27115.0,Brazil,55.0,375.7429476666901,2.5415906247608233
1088,Abaetetuba,-1.724530694,-48.88488014,78735.0,Brazil,63.0,297.0548097264717,2.9480451960898644
1090,Araguaina,-7.190014628999999,-48.21001367,50444.0,Brazil,18.0,173.5785554458303,3.979574034294997
1091,Palmas,-10.23773558,-48.287786700000005,215793.5,Brazil,670.0,470.2466154312851,1.98043675019531
1092,Teofilo Otoni,-17.87003457,-41.50000981,86865.0,Brazil,1183.0,329.3816174916732,2.397091251382815
1093,Uberaba,-19.7799955,-47.9500037,234807.0,Brazil,6.0,343.9621719815308,3.3266987554923597
1094,Januaria,-15.47999957,-44.36998967,25753.0,Brazil,2070.0,481.2103728770414,1.6797222716119848
1095,Mato Grosso,-15.00002887,-59.95002059,1612.0,Brazil,246.0,338.7901584772221,2.2162883712412365
1096,Aripuana,-9.169997132999999,-60.64000431,26983.0,Brazil,226.0,158.6237670468551,3.6175516869647106
1097,Sinop,-11.84998859,-55.45998458,8961.0,Brazil,33.0,173.3011388770953,3.7195726387764654
1098,Jaguarao,-32.5600423,-53.36998295,26020.0,Brazil,49.0,811.2935375814875,1.393463909088942
1099,Bage,-31.32001463,-54.10001591,102519.0,Brazil,7.0,316.5117798761056,3.3577848524222644
1100,Londrina,-23.30003904,-51.17998743,496035.0,Brazil,35.0,456.72350339795247,2.5226704873170354
1101,Criciuma,-28.68002073,-49.38996749,183085.5,Brazil,1182.0,512.2570339741477,1.7771534466418955
1102,Aracati,-4.559994284,-37.77003076,28126.5,Brazil,2970.0,387.12161359540164,1.9805398742413358
1103,Ico,-6.400037009,-38.84999068,15820.0,Brazil,4.0,651.0525889354552,2.2866235955158714
1104,Parnaiba,-2.9100174780000003,-41.76996749,125699.0,Brazil,226.0,336.9502531831013,2.588645459205881
1105,Picos,-7.079995505,-41.43998763,47694.5,Brazil,200.0,774.530450892442,1.2795873754954905
1106,Arapiraca,-9.750013409,-36.66999455,177115.0,Brazil,106.0,261.24033273840126,3.1075569560913303
1107,Jequie,-13.85002155,-40.07999312,131524.5,Brazil,389.0,54.19880283429764,5.252353832758889
1108,Ilheus,-14.780042300000002,-39.05000431,193060.5,Brazil,69.0,534.2015276523699,2.1023730112184826
1109,Canavieiras,-15.64004148,-38.96000981,26375.0,Brazil,132.0,312.48575490701097,2.672410311088455
1110,Santa Maria da Vitoria,-13.38999795,-44.21002527,13176.0,Brazil,5510.0,290.0648229022679,2.3018328729584097
1111,Irece,-11.29999632,-41.87001306,48079.5,Brazil,35.0,281.0669038750447,3.1078487319584203
1112,Xique-Xique,-10.82002562,-42.73001225,18633.0,Brazil,21.0,104.2437063314654,4.635515119178426
1113,Linhares,-19.38999347,-40.05002079,86413.0,Brazil,125.0,673.4463750832958,1.602079052250142
1114,Campos,-21.74995278,-41.32002079,378943.0,Brazil,185.0,588.9359136917693,1.8398909956392824
1115,Mossoro,-5.190033347,-37.34000533,202294.0,Brazil,1900.0,79.17212502105122,4.541700445634327
1116,Aracaju,-10.90002073,-37.11996708,587765.5,Brazil,53.0,236.7118935892461,3.4466062935431325
1117,Laranjal do Jari,-0.8500398570000001,-52.48001144,43344.0,Brazil,68.0,786.7185667420438,1.4184624486039334
1118,Amapa,2.049989847,-50.80001062,1947.0,Brazil,86.0,116.95311202105611,3.9944330884464914
1119,Vila Velha,3.21666282,-51.21665186,742413.5,Brazil,27.0,276.1253365869675,3.359782346844401
